{"type":"FeatureCollection","features":[{"type":"Feature","geometry":{"type":"Point","coordinates":[4.21667,50.65]},"properties":{"place":"Philosophe","label":"casualties: 0","datetime":"1916-02-03T00:00:00Z"}},{"type":"Feature","geometry":{"type":"Point","coordinates":[4.21667,50.65]},"properties":{"place":"Philosophe","label":"casualties: 0","datetime":"1916-02-04T00:00:00Z"}},{"type":"Feature","geometry":{"type":"Point","coordinates":[4.21667,50.65]},"properties":{"place":"Philosophe","label":"casualties: 0","datetime":"1916-02-05T04:30:00Z"}},{"type":"Feature","geometry":{"type":"Point","coordinates":[4.21667,50.65]},"properties":{"place":"Philosophe","label":"casualties: 0","datetime":"1916-02-06T00:00:00Z"}},{"type":"Feature","geometry":{"type":"Point","coordinates":[4.21667,50.65]},"properties":{"place":"Philosophe","label":"casualties: 0","datetime":"1916-02-06T22:30:00Z"}},{"type":"Feature","geometry":{"type":"Point","coordinates":[4.21667,50.65]},"properties":{"place":"Philosophe","label":"casualties: 0","datetime":"1916-02-07T07:00:00Z"}},{"type":"Feature","geometry":{"type":"Point","coordinates":[4.21667,50.65]},"properties":{"place":"Philosophe","label":"casualties: 0","datetime":"1916-02-08T00:00:00Z"}},{"type":"Feature","geometry":{"type":"Point","coordinates":[4.21667,50.65]},"properties":{"place":"Philosophe","label":"casualties: 0","datetime":"1916-02-12T00:00:00Z"}},{"type":"Feature","geometry":{"type":"Point","coordinates":[4.21667,50.65]},"properties":{"place":"Philosophe","label":"casualties: 0","datetime":"1916-02-13T23:00:00Z"}},{"type":"Feature","geometry":{"type":"Point","coordinates":[4.21667,50.65]},"properties":{"place":"Philosophe","label":"casualties: 0","datetime":"1916-02-14T00:00:00Z"}},{"type":"Feature","geometry":{"type":"Point","coordinates":[4.21667,50.65]},"properties":{"place":"Philosophe","label":"casualties: 0","datetime":"1914-02-15T00:00:00Z"}},{"type":"Feature","geometry":{"type":"Point","coordinates":[4.21667,50.65]},"properties":{"place":"Philosophe","label":"casualties: 0","datetime":"1914-02-16T00:00:00Z"}},{"type":"Feature","geometry":{"type":"Point","coordinates":[4.21667,50.65]},"properties":{"place":"Philosophe","label":"casualties: 0","datetime":"1914-02-18T00:00:00Z"}},{"type":"Feature","geometry":{"type":"Point","coordinates":[4.21667,50.65]},"properties":{"place":"Philosophe","label":"casualties: 0","datetime":"1914-02-19T00:00:00Z"}},{"type":"Feature","geometry":{"type":"Point","coordinates":[4.21667,50.65]},"properties":{"place":"Philosophe","label":"casualties: 0","datetime":"1914-02-20T22:00:00Z"}},{"type":"Feature","geometry":{"type":"Point","coordinates":[2.66628,50.50245]},"properties":{"place":"Verruigneul","label":"casualties: 0","datetime":"1914-02-21T19:45:00Z"}},{"type":"Feature","geometry":{"type":"Point","coordinates":[2.32554,50.03049]},"properties":{"place":"Talmas","label":"casualties: 0","datetime":"1916-10-24T00:00:00Z"}},{"type":"Feature","geometry":{"type":"Point","coordinates":[2.44402,49.98982]},"properties":{"place":"Beaucourt","label":"casualties: 0","datetime":"1916-11-06T00:00:00Z"}},{"type":"Feature","geometry":{"type":"Point","coordinates":[2.44402,49.98982]},"properties":{"place":"Beaucourt","label":"casualties: 0","datetime":"1916-11-07T00:00:00Z"}},{"type":"Feature","geometry":{"type":"Point","coordinates":[2.44402,49.98982]},"properties":{"place":"Beaucourt","label":"casualties: 0","datetime":"1916-11-08T00:00:00Z"}},{"type":"Feature","geometry":{"type":"Point","coordinates":[2.91667,50.71667]},"properties":{"place":"Letoquoi","label":"casualties: 0","datetime":"1916-11-19T00:00:00Z"}},{"type":"Feature","geometry":{"type":"Point","coordinates":[0.10767,49.4938]},"properties":{"place":"Le Havre","label":"sick: 1","datetime":"1916-03-15T20:00:00Z"}},{"type":"Feature","geometry":{"type":"Point","coordinates":[0.10767,49.4938]},"properties":{"place":"Le Havre","label":"sick: 1","datetime":"1916-03-15T20:00:00Z"}},{"type":"Feature","geometry":{"type":"Point","coordinates":[1.70341,50.62567]},"properties":{"place":"Menty","label":"sick: 1","datetime":"1916-04-03T19:00:00Z"}},{"type":"Feature","geometry":{"type":"Point","coordinates":[1.70341,50.62567]},"properties":{"place":"Menty","label":"sick: 1","datetime":"1917-03-14T00:00:00Z"}},{"type":"Feature","geometry":{"type":"Point","coordinates":[2.15859,50.35341]},"properties":{"place":"Willeman","label":"sick: 1","datetime":"1917-04-21T00:00:00Z"}},{"type":"Feature","geometry":{"type":"Point","coordinates":[2.51827,50.58781]},"properties":{"place":"Busnes","label":"sick: 1","datetime":"1917-06-11T08:00:00Z"}},{"type":"Feature","geometry":{"type":"Point","coordinates":[2.41253,50.48437]},"properties":{"place":"Busnes","label":"sick: 1","datetime":"1917-06-11T08:00:00Z"}},{"type":"Feature","geometry":{"type":"Point","coordinates":[2.51827,50.58781]},"properties":{"place":"Busnes","label":"sick: 1","datetime":"1917-06-23T00:00:00Z"}},{"type":"Feature","geometry":{"type":"Point","coordinates":[2.41253,50.48437]},"properties":{"place":"Busnes","label":"sick: 1","datetime":"1917-06-23T00:00:00Z"}},{"type":"Feature","geometry":{"type":"Point","coordinates":[2.51827,50.58781]},"properties":{"place":"Busnes","label":"sick: 1","datetime":"1917-06-30T00:00:00Z"}},{"type":"Feature","geometry":{"type":"Point","coordinates":[2.41253,50.48437]},"properties":{"place":"Busnes","label":"sick: 1","datetime":"1917-06-30T00:00:00Z"}},{"type":"Feature","geometry":{"type":"Point","coordinates":[2.51827,50.58781]},"properties":{"place":"Busnes","label":"sick: 1","datetime":"1917-07-06T00:00:00Z"}},{"type":"Feature","geometry":{"type":"Point","coordinates":[2.41253,50.48437]},"properties":{"place":"Busnes","label":"sick: 1","datetime":"1917-07-06T00:00:00Z"}},{"type":"Feature","geometry":{"type":"Point","coordinates":[2.51827,50.58781]},"properties":{"place":"Busnes","label":"sick: 1","datetime":"1917-07-14T00:00:00Z"}},{"type":"Feature","geometry":{"type":"Point","coordinates":[2.41253,50.48437]},"properties":{"place":"Busnes","label":"sick: 1","datetime":"1917-07-14T00:00:00Z"}},{"type":"Feature","geometry":{"type":"Point","coordinates":[3.49249,49.29655]},"properties":{"place":"Croix de Poperinghe, Croix De Poperinghe","label":"sick: 1","datetime":"1914-11-19T00:00:00Z"}},{"type":"Feature","geometry":{"type":"Point","coordinates":[2.73594,50.73592]},"properties":{"place":"Thieshouk","label":"wounded: 1","datetime":"1914-12-07T00:00:00Z"}},{"type":"Feature","geometry":{"type":"Point","coordinates":[2.89764,50.76581]},"properties":{"place":"Messines","label":"wounded: 5","datetime":"1914-10-31T06:00:00Z"}},{"type":"Feature","geometry":{"type":"Point","coordinates":[2.81667,50.76667]},"properties":{"place":"Lindon Hook, Lindenhoek","label":"killed: 9","datetime":"1914-11-03T00:00:00Z"}},{"type":"Feature","geometry":{"type":"Point","coordinates":[2.85243,50.76021]},"properties":{"place":"wulvergem","label":"killed: 9, wounded: 1","datetime":"1914-11-06T00:00:00Z"}},{"type":"Feature","geometry":{"type":"Point","coordinates":[2.73594,50.73592]},"properties":{"place":"Thieshouk","label":"killed: 1, wounded: 1","datetime":"1915-02-12T00:00:00Z"}},{"type":"Feature","geometry":{"type":"Point","coordinates":[2.88569,50.85114]},"properties":{"place":"Ypres","label":"wounded: 1","datetime":"1915-02-23T00:00:00Z"}},{"type":"Feature","geometry":{"type":"Point","coordinates":[2.73594,50.73592]},"properties":{"place":"Thieshouk","label":"wounded: 1","datetime":"1915-03-05T23:00:00Z"}},{"type":"Feature","geometry":{"type":"Point","coordinates":[2.82024,50.85485]},"properties":{"place":"Vlamertinghe","label":"wounded: 1","datetime":"1915-05-13T00:00:00Z"}},{"type":"Feature","geometry":{"type":"Point","coordinates":[2.82024,50.85485]},"properties":{"place":"Vlamertinghe","label":"wounded: 1","datetime":"1915-05-13T00:00:00Z"}},{"type":"Feature","geometry":{"type":"Point","coordinates":[2.82024,50.85485]},"properties":{"place":"Vlamertinghe","label":"wounded: 1","datetime":"1915-05-13T00:00:00Z"}},{"type":"Feature","geometry":{"type":"Point","coordinates":[2.77066,50.81514]},"properties":{"place":"Vlamertinghe","label":"wounded: 1","datetime":"1915-05-13T00:00:00Z"}},{"type":"Feature","geometry":{"type":"Point","coordinates":[8.54425,54.56889]},"properties":{"place":"Vlamertinghe","label":"wounded: 1","datetime":"1915-05-13T00:00:00Z"}},{"type":"Feature","geometry":{"type":"Point","coordinates":[2.88569,50.85114]},"properties":{"place":"Ypres","label":"sick: 2","datetime":"1915-05-20T00:00:00Z"}},{"type":"Feature","geometry":{"type":"Point","coordinates":[2.88569,50.85114]},"properties":{"place":"Ypres","label":"killed: 1","datetime":"1915-05-22T00:00:00Z"}},{"type":"Feature","geometry":{"type":"Point","coordinates":[2.88569,50.85114]},"properties":{"place":"Ypres","label":"wounded: 8","datetime":"1915-05-24T06:00:00Z"}},{"type":"Feature","geometry":{"type":"Point","coordinates":[2.88569,50.85114]},"properties":{"place":"Ypres","label":"killed: 1, wounded: 8","datetime":"1915-05-24T06:00:00Z"}},{"type":"Feature","geometry":{"type":"Point","coordinates":[2.82024,50.85485]},"properties":{"place":"Vlamertinghe","label":"sick: 1","datetime":"1915-07-09T00:00:00Z"}},{"type":"Feature","geometry":{"type":"Point","coordinates":[2.82024,50.85485]},"properties":{"place":"Vlamertinghe","label":"sick: 1","datetime":"1915-07-09T00:00:00Z"}},{"type":"Feature","geometry":{"type":"Point","coordinates":[2.82024,50.85485]},"properties":{"place":"Vlamertinghe","label":"sick: 1","datetime":"1915-07-09T00:00:00Z"}},{"type":"Feature","geometry":{"type":"Point","coordinates":[2.77066,50.81514]},"properties":{"place":"Vlamertinghe","label":"sick: 1","datetime":"1915-07-09T00:00:00Z"}},{"type":"Feature","geometry":{"type":"Point","coordinates":[8.54425,54.56889]},"properties":{"place":"Vlamertinghe","label":"sick: 1","datetime":"1915-07-09T00:00:00Z"}},{"type":"Feature","geometry":{"type":"Point","coordinates":[2.82024,50.85485]},"properties":{"place":"Vlamertinghe","label":"sick: 1","datetime":"1915-07-14T00:00:00Z"}},{"type":"Feature","geometry":{"type":"Point","coordinates":[2.82024,50.85485]},"properties":{"place":"Vlamertinghe","label":"sick: 1","datetime":"1915-07-14T00:00:00Z"}},{"type":"Feature","geometry":{"type":"Point","coordinates":[2.82024,50.85485]},"properties":{"place":"Vlamertinghe","label":"sick: 1","datetime":"1915-07-14T00:00:00Z"}},{"type":"Feature","geometry":{"type":"Point","coordinates":[2.77066,50.81514]},"properties":{"place":"Vlamertinghe","label":"sick: 1","datetime":"1915-07-14T00:00:00Z"}},{"type":"Feature","geometry":{"type":"Point","coordinates":[8.54425,54.56889]},"properties":{"place":"Vlamertinghe","label":"sick: 1","datetime":"1915-07-14T00:00:00Z"}},{"type":"Feature","geometry":{"type":"Point","coordinates":[2.82024,50.85485]},"properties":{"place":"Vlamertinghe","label":"sick: 1","datetime":"1915-07-15T00:00:00Z"}},{"type":"Feature","geometry":{"type":"Point","coordinates":[2.82024,50.85485]},"properties":{"place":"Vlamertinghe","label":"sick: 1","datetime":"1915-07-15T00:00:00Z"}},{"type":"Feature","geometry":{"type":"Point","coordinates":[2.82024,50.85485]},"properties":{"place":"Vlamertinghe","label":"sick: 1","datetime":"1915-07-15T00:00:00Z"}},{"type":"Feature","geometry":{"type":"Point","coordinates":[2.77066,50.81514]},"properties":{"place":"Vlamertinghe","label":"sick: 1","datetime":"1915-07-15T00:00:00Z"}},{"type":"Feature","geometry":{"type":"Point","coordinates":[8.54425,54.56889]},"properties":{"place":"Vlamertinghe","label":"sick: 1","datetime":"1915-07-15T00:00:00Z"}},{"type":"Feature","geometry":{"type":"Point","coordinates":[2.82024,50.85485]},"properties":{"place":"Vlamertinghe","label":"sick: 1","datetime":"1915-07-28T00:00:00Z"}},{"type":"Feature","geometry":{"type":"Point","coordinates":[2.82024,50.85485]},"properties":{"place":"Vlamertinghe","label":"sick: 1","datetime":"1915-07-28T00:00:00Z"}},{"type":"Feature","geometry":{"type":"Point","coordinates":[2.82024,50.85485]},"properties":{"place":"Vlamertinghe","label":"sick: 1","datetime":"1915-07-28T00:00:00Z"}},{"type":"Feature","geometry":{"type":"Point","coordinates":[2.77066,50.81514]},"properties":{"place":"Vlamertinghe","label":"sick: 1","datetime":"1915-07-28T00:00:00Z"}},{"type":"Feature","geometry":{"type":"Point","coordinates":[8.54425,54.56889]},"properties":{"place":"Vlamertinghe","label":"sick: 1","datetime":"1915-07-28T00:00:00Z"}},{"type":"Feature","geometry":{"type":"Point","coordinates":[2.82024,50.85485]},"properties":{"place":"Vlamertinghe","label":"sick: 1","datetime":"1915-07-29T00:00:00Z"}},{"type":"Feature","geometry":{"type":"Point","coordinates":[2.82024,50.85485]},"properties":{"place":"Vlamertinghe","label":"sick: 1","datetime":"1915-07-29T00:00:00Z"}},{"type":"Feature","geometry":{"type":"Point","coordinates":[2.82024,50.85485]},"properties":{"place":"Vlamertinghe","label":"sick: 1","datetime":"1915-07-29T00:00:00Z"}},{"type":"Feature","geometry":{"type":"Point","coordinates":[2.77066,50.81514]},"properties":{"place":"Vlamertinghe","label":"sick: 1","datetime":"1915-07-29T00:00:00Z"}},{"type":"Feature","geometry":{"type":"Point","coordinates":[8.54425,54.56889]},"properties":{"place":"Vlamertinghe","label":"sick: 1","datetime":"1915-07-29T00:00:00Z"}},{"type":"Feature","geometry":{"type":"Point","coordinates":[2.82024,50.85485]},"properties":{"place":"Vlamertinghe","label":"sick: 2","datetime":"1915-08-02T00:00:00Z"}},{"type":"Feature","geometry":{"type":"Point","coordinates":[2.82024,50.85485]},"properties":{"place":"Vlamertinghe","label":"sick: 2","datetime":"1915-08-02T00:00:00Z"}},{"type":"Feature","geometry":{"type":"Point","coordinates":[2.82024,50.85485]},"properties":{"place":"Vlamertinghe","label":"sick: 2","datetime":"1915-08-02T00:00:00Z"}},{"type":"Feature","geometry":{"type":"Point","coordinates":[2.77066,50.81514]},"properties":{"place":"Vlamertinghe","label":"sick: 2","datetime":"1915-08-02T00:00:00Z"}},{"type":"Feature","geometry":{"type":"Point","coordinates":[8.54425,54.56889]},"properties":{"place":"Vlamertinghe","label":"sick: 2","datetime":"1915-08-02T00:00:00Z"}},{"type":"Feature","geometry":{"type":"Point","coordinates":[2.8171,50.88476]},"properties":{"place":"Elverdinghe","label":"sick: 1","datetime":"1915-08-05T00:00:00Z"}},{"type":"Feature","geometry":{"type":"Point","coordinates":[2.8171,50.88476]},"properties":{"place":"Elverdinghe","label":"sick: 1","datetime":"1915-08-05T00:00:00Z"}},{"type":"Feature","geometry":{"type":"Point","coordinates":[2.88569,50.85114]},"properties":{"place":"Elverdinghe","label":"sick: 1","datetime":"1915-08-05T00:00:00Z"}},{"type":"Feature","geometry":{"type":"Point","coordinates":[2.82024,50.85485]},"properties":{"place":"Vlamertinghe","label":"sick: 2","datetime":"1915-08-07T00:00:00Z"}},{"type":"Feature","geometry":{"type":"Point","coordinates":[2.82024,50.85485]},"properties":{"place":"Vlamertinghe","label":"sick: 2","datetime":"1915-08-07T00:00:00Z"}},{"type":"Feature","geometry":{"type":"Point","coordinates":[2.82024,50.85485]},"properties":{"place":"Vlamertinghe","label":"sick: 2","datetime":"1915-08-07T00:00:00Z"}},{"type":"Feature","geometry":{"type":"Point","coordinates":[2.77066,50.81514]},"properties":{"place":"Vlamertinghe","label":"sick: 2","datetime":"1915-08-07T00:00:00Z"}},{"type":"Feature","geometry":{"type":"Point","coordinates":[8.54425,54.56889]},"properties":{"place":"Vlamertinghe","label":"sick: 2","datetime":"1915-08-07T00:00:00Z"}},{"type":"Feature","geometry":{"type":"Point","coordinates":[2.82024,50.85485]},"properties":{"place":"Vlamertinghe","label":"sick: 1","datetime":"1915-08-15T00:00:00Z"}},{"type":"Feature","geometry":{"type":"Point","coordinates":[2.82024,50.85485]},"properties":{"place":"Vlamertinghe","label":"sick: 1","datetime":"1915-08-15T00:00:00Z"}},{"type":"Feature","geometry":{"type":"Point","coordinates":[2.82024,50.85485]},"properties":{"place":"Vlamertinghe","label":"sick: 1","datetime":"1915-08-15T00:00:00Z"}},{"type":"Feature","geometry":{"type":"Point","coordinates":[2.77066,50.81514]},"properties":{"place":"Vlamertinghe","label":"sick: 1","datetime":"1915-08-15T00:00:00Z"}},{"type":"Feature","geometry":{"type":"Point","coordinates":[8.54425,54.56889]},"properties":{"place":"Vlamertinghe","label":"sick: 1","datetime":"1915-08-15T00:00:00Z"}},{"type":"Feature","geometry":{"type":"Point","coordinates":[2.82024,50.85485]},"properties":{"place":"Vlamertinghe","label":"wounded: 1","datetime":"1915-08-16T00:00:00Z"}},{"type":"Feature","geometry":{"type":"Point","coordinates":[2.82024,50.85485]},"properties":{"place":"Vlamertinghe","label":"wounded: 1","datetime":"1915-08-16T00:00:00Z"}},{"type":"Feature","geometry":{"type":"Point","coordinates":[2.82024,50.85485]},"properties":{"place":"Vlamertinghe","label":"wounded: 1","datetime":"1915-08-16T00:00:00Z"}},{"type":"Feature","geometry":{"type":"Point","coordinates":[2.77066,50.81514]},"properties":{"place":"Vlamertinghe","label":"wounded: 1","datetime":"1915-08-16T00:00:00Z"}},{"type":"Feature","geometry":{"type":"Point","coordinates":[8.54425,54.56889]},"properties":{"place":"Vlamertinghe","label":"wounded: 1","datetime":"1915-08-16T00:00:00Z"}},{"type":"Feature","geometry":{"type":"Point","coordinates":[2.82024,50.85485]},"properties":{"place":"Vlamertinghe","label":"wounded: 1","datetime":"1915-08-16T00:00:00Z"}},{"type":"Feature","geometry":{"type":"Point","coordinates":[2.82024,50.85485]},"properties":{"place":"Vlamertinghe","label":"wounded: 1","datetime":"1915-08-16T00:00:00Z"}},{"type":"Feature","geometry":{"type":"Point","coordinates":[2.82024,50.85485]},"properties":{"place":"Vlamertinghe","label":"wounded: 1","datetime":"1915-08-16T00:00:00Z"}},{"type":"Feature","geometry":{"type":"Point","coordinates":[2.77066,50.81514]},"properties":{"place":"Vlamertinghe","label":"wounded: 1","datetime":"1915-08-16T00:00:00Z"}},{"type":"Feature","geometry":{"type":"Point","coordinates":[8.54425,54.56889]},"properties":{"place":"Vlamertinghe","label":"wounded: 1","datetime":"1915-08-16T00:00:00Z"}},{"type":"Feature","geometry":{"type":"Point","coordinates":[2.82024,50.85485]},"properties":{"place":"Vlamertinghe","label":"sick: 1","datetime":"1915-08-17T00:00:00Z"}},{"type":"Feature","geometry":{"type":"Point","coordinates":[2.82024,50.85485]},"properties":{"place":"Vlamertinghe","label":"sick: 1","datetime":"1915-08-17T00:00:00Z"}},{"type":"Feature","geometry":{"type":"Point","coordinates":[2.82024,50.85485]},"properties":{"place":"Vlamertinghe","label":"sick: 1","datetime":"1915-08-17T00:00:00Z"}},{"type":"Feature","geometry":{"type":"Point","coordinates":[2.77066,50.81514]},"properties":{"place":"Vlamertinghe","label":"sick: 1","datetime":"1915-08-17T00:00:00Z"}},{"type":"Feature","geometry":{"type":"Point","coordinates":[8.54425,54.56889]},"properties":{"place":"Vlamertinghe","label":"sick: 1","datetime":"1915-08-17T00:00:00Z"}},{"type":"Feature","geometry":{"type":"Point","coordinates":[2.82024,50.85485]},"properties":{"place":"Vlamertinghe","label":"sick: 1","datetime":"1915-08-19T00:00:00Z"}},{"type":"Feature","geometry":{"type":"Point","coordinates":[2.82024,50.85485]},"properties":{"place":"Vlamertinghe","label":"sick: 1","datetime":"1915-08-19T00:00:00Z"}},{"type":"Feature","geometry":{"type":"Point","coordinates":[2.82024,50.85485]},"properties":{"place":"Vlamertinghe","label":"sick: 1","datetime":"1915-08-19T00:00:00Z"}},{"type":"Feature","geometry":{"type":"Point","coordinates":[2.77066,50.81514]},"properties":{"place":"Vlamertinghe","label":"sick: 1","datetime":"1915-08-19T00:00:00Z"}},{"type":"Feature","geometry":{"type":"Point","coordinates":[8.54425,54.56889]},"properties":{"place":"Vlamertinghe","label":"sick: 1","datetime":"1915-08-19T00:00:00Z"}},{"type":"Feature","geometry":{"type":"Point","coordinates":[2.82024,50.85485]},"properties":{"place":"Vlamertinghe","label":"sick: 1","datetime":"1915-08-21T00:00:00Z"}},{"type":"Feature","geometry":{"type":"Point","coordinates":[2.82024,50.85485]},"properties":{"place":"Vlamertinghe","label":"sick: 1","datetime":"1915-08-21T00:00:00Z"}},{"type":"Feature","geometry":{"type":"Point","coordinates":[2.82024,50.85485]},"properties":{"place":"Vlamertinghe","label":"sick: 1","datetime":"1915-08-21T00:00:00Z"}},{"type":"Feature","geometry":{"type":"Point","coordinates":[2.77066,50.81514]},"properties":{"place":"Vlamertinghe","label":"sick: 1","datetime":"1915-08-21T00:00:00Z"}},{"type":"Feature","geometry":{"type":"Point","coordinates":[8.54425,54.56889]},"properties":{"place":"Vlamertinghe","label":"sick: 1","datetime":"1915-08-21T00:00:00Z"}},{"type":"Feature","geometry":{"type":"Point","coordinates":[2.82024,50.85485]},"properties":{"place":"Vlamertinghe","label":"wounded: 1","datetime":"1915-08-28T00:00:00Z"}},{"type":"Feature","geometry":{"type":"Point","coordinates":[2.82024,50.85485]},"properties":{"place":"Vlamertinghe","label":"wounded: 1","datetime":"1915-08-28T00:00:00Z"}},{"type":"Feature","geometry":{"type":"Point","coordinates":[2.82024,50.85485]},"properties":{"place":"Vlamertinghe","label":"wounded: 1","datetime":"1915-08-28T00:00:00Z"}},{"type":"Feature","geometry":{"type":"Point","coordinates":[2.77066,50.81514]},"properties":{"place":"Vlamertinghe","label":"wounded: 1","datetime":"1915-08-28T00:00:00Z"}},{"type":"Feature","geometry":{"type":"Point","coordinates":[8.54425,54.56889]},"properties":{"place":"Vlamertinghe","label":"wounded: 1","datetime":"1915-08-28T00:00:00Z"}},{"type":"Feature","geometry":{"type":"Point","coordinates":[2.82024,50.85485]},"properties":{"place":"Vlamertinghe","label":"wounded: 1","datetime":"1915-08-30T00:00:00Z"}},{"type":"Feature","geometry":{"type":"Point","coordinates":[2.82024,50.85485]},"properties":{"place":"Vlamertinghe","label":"wounded: 1","datetime":"1915-08-30T00:00:00Z"}},{"type":"Feature","geometry":{"type":"Point","coordinates":[2.82024,50.85485]},"properties":{"place":"Vlamertinghe","label":"wounded: 1","datetime":"1915-08-30T00:00:00Z"}},{"type":"Feature","geometry":{"type":"Point","coordinates":[2.77066,50.81514]},"properties":{"place":"Vlamertinghe","label":"wounded: 1","datetime":"1915-08-30T00:00:00Z"}},{"type":"Feature","geometry":{"type":"Point","coordinates":[8.54425,54.56889]},"properties":{"place":"Vlamertinghe","label":"wounded: 1","datetime":"1915-08-30T00:00:00Z"}},{"type":"Feature","geometry":{"type":"Point","coordinates":[2.82024,50.85485]},"properties":{"place":"Vlamertinghe, Vlamertinge, VLAMERTINGHE","label":"sick: 1","datetime":"1915-09-03T00:00:00Z"}},{"type":"Feature","geometry":{"type":"Point","coordinates":[2.43215,50.88694]},"properties":{"place":"Esquelbecq","label":"sick: 1","datetime":"1915-09-07T00:00:00Z"}},{"type":"Feature","geometry":{"type":"Point","coordinates":[3.01874,50.60982]},"properties":{"place":"Loos","label":"wounded: 1","datetime":"1915-10-05T13:00:00Z"}},{"type":"Feature","geometry":{"type":"Point","coordinates":[2.82791,50.43302]},"properties":{"place":"Loos","label":"wounded: 1","datetime":"1915-10-05T13:00:00Z"}},{"type":"Feature","geometry":{"type":"Point","coordinates":[1.74628,50.6384]},"properties":{"place":"Abbaye de Woestine","label":"wounded: 1","datetime":"1915-12-03T00:00:00Z"}},{"type":"Feature","geometry":{"type":"Point","coordinates":[1.74628,50.6384]},"properties":{"place":"Abbaye de Woestine","label":"killed: 1","datetime":"1915-12-31T00:00:00Z"}},{"type":"Feature","geometry":{"type":"Point","coordinates":[1.74628,50.6384]},"properties":{"place":"La Philosophe","label":"wounded: 3","datetime":"1916-01-26T00:00:00Z"}},{"type":"Feature","geometry":{"type":"Point","coordinates":[1.74628,50.6384]},"properties":{"place":"La Philosophe","label":"wounded: 3","datetime":"1916-01-26T00:00:00Z"}},{"type":"Feature","geometry":{"type":"Point","coordinates":[1.74628,50.6384]},"properties":{"place":"La Philosophe","label":"wounded: 1","datetime":"1916-02-05T00:00:00Z"}},{"type":"Feature","geometry":{"type":"Point","coordinates":[1.74628,50.6384]},"properties":{"place":"La Philosophe","label":"wounded: 1","datetime":"1916-02-05T00:00:00Z"}},{"type":"Feature","geometry":{"type":"Point","coordinates":[1.74628,50.6384]},"properties":{"place":"Samer","label":"wounded: 1","datetime":"1916-02-24T00:00:00Z"}},{"type":"Feature","geometry":{"type":"Point","coordinates":[1.74628,50.6384]},"properties":{"place":"Samer","label":"sick: 2","datetime":"1916-03-18T00:00:00Z"}},{"type":"Feature","geometry":{"type":"Point","coordinates":[1.74628,50.6384]},"properties":{"place":"Samer","label":"sick: 1","datetime":"1916-03-20T00:00:00Z"}},{"type":"Feature","geometry":{"type":"Point","coordinates":[3.59311,50.70577]},"properties":{"place":"Quesnoy","label":"died: 1","datetime":"1916-07-08T00:00:00Z"}},{"type":"Feature","geometry":{"type":"Point","coordinates":[2.59125,49.95786]},"properties":{"place":"Treux","label":"sick: 1","datetime":"1916-07-16T00:00:00Z"}},{"type":"Feature","geometry":{"type":"Point","coordinates":[2.442,50.10623]},"properties":{"place":"Treux","label":"sick: 1","datetime":"1916-07-16T00:00:00Z"}},{"type":"Feature","geometry":{"type":"Point","coordinates":[2.71357,49.99811]},"properties":{"place":"Fricourt","label":"wounded: 1","datetime":"1916-07-26T19:00:00Z"}},{"type":"Feature","geometry":{"type":"Point","coordinates":[2.78388,49.98111]},"properties":{"place":"Fricourt","label":"wounded: 1","datetime":"1916-07-26T19:00:00Z"}},{"type":"Feature","geometry":{"type":"Point","coordinates":[2.71357,49.99811]},"properties":{"place":"Fricourt","label":"wounded: 2","datetime":"1916-07-29T08:00:00Z"}},{"type":"Feature","geometry":{"type":"Point","coordinates":[2.78388,49.98111]},"properties":{"place":"Fricourt","label":"wounded: 2","datetime":"1916-07-29T08:00:00Z"}},{"type":"Feature","geometry":{"type":"Point","coordinates":[2.71357,49.99811]},"properties":{"place":"Fricourt","label":"wounded: 5","datetime":"1916-07-29T08:00:00Z"}},{"type":"Feature","geometry":{"type":"Point","coordinates":[2.78388,49.98111]},"properties":{"place":"Fricourt","label":"wounded: 5","datetime":"1916-07-29T08:00:00Z"}},{"type":"Feature","geometry":{"type":"Point","coordinates":[2.71357,49.99811]},"properties":{"place":"Fricourt","label":"wounded: 20","datetime":"1916-07-30T00:00:00Z"}},{"type":"Feature","geometry":{"type":"Point","coordinates":[2.78388,49.98111]},"properties":{"place":"Fricourt","label":"wounded: 20","datetime":"1916-07-30T00:00:00Z"}},{"type":"Feature","geometry":{"type":"Point","coordinates":[2.7769,50.00625]},"properties":{"place":"Montauban","label":"killed: 1, wounded: 1","datetime":"1916-07-31T15:00:00Z"}},{"type":"Feature","geometry":{"type":"Point","coordinates":[2.71357,49.99811]},"properties":{"place":"Fricourt","label":"killed: 3","datetime":"1916-08-01T00:00:00Z"}},{"type":"Feature","geometry":{"type":"Point","coordinates":[2.78388,49.98111]},"properties":{"place":"Fricourt","label":"killed: 3","datetime":"1916-08-01T00:00:00Z"}},{"type":"Feature","geometry":{"type":"Point","coordinates":[2.71357,49.99811]},"properties":{"place":"Fricourt","label":"wounded: 5","datetime":"1916-08-02T00:00:00Z"}},{"type":"Feature","geometry":{"type":"Point","coordinates":[2.78388,49.98111]},"properties":{"place":"Fricourt","label":"wounded: 5","datetime":"1916-08-02T00:00:00Z"}},{"type":"Feature","geometry":{"type":"Point","coordinates":[2.71357,49.99811]},"properties":{"place":"Fricourt","label":"casualties: 0","datetime":"1916-08-03T00:00:00Z"}},{"type":"Feature","geometry":{"type":"Point","coordinates":[2.78388,49.98111]},"properties":{"place":"Fricourt","label":"casualties: 0","datetime":"1916-08-03T00:00:00Z"}},{"type":"Feature","geometry":{"type":"Point","coordinates":[2.71357,49.99811]},"properties":{"place":"Fricourt","label":"wounded: 1","datetime":"1916-08-04T00:00:00Z"}},{"type":"Feature","geometry":{"type":"Point","coordinates":[2.78388,49.98111]},"properties":{"place":"Fricourt","label":"wounded: 1","datetime":"1916-08-04T00:00:00Z"}},{"type":"Feature","geometry":{"type":"Point","coordinates":[2.71357,49.99811]},"properties":{"place":"Fricourt","label":"killed: 3, wounded: 2","datetime":"1916-08-05T00:00:00Z"}},{"type":"Feature","geometry":{"type":"Point","coordinates":[2.78388,49.98111]},"properties":{"place":"Fricourt","label":"killed: 3, wounded: 2","datetime":"1916-08-05T00:00:00Z"}},{"type":"Feature","geometry":{"type":"Point","coordinates":[2.71357,49.99811]},"properties":{"place":"Fricourt","label":"wounded: 3","datetime":"1916-08-06T00:00:00Z"}},{"type":"Feature","geometry":{"type":"Point","coordinates":[2.78388,49.98111]},"properties":{"place":"Fricourt","label":"wounded: 3","datetime":"1916-08-06T00:00:00Z"}},{"type":"Feature","geometry":{"type":"Point","coordinates":[2.7769,50.00625]},"properties":{"place":"Montauban","label":"wounded: 2","datetime":"1916-08-09T00:00:00Z"}},{"type":"Feature","geometry":{"type":"Point","coordinates":[2.71357,49.99811]},"properties":{"place":"Fricourt","label":"wounded: 2","datetime":"1916-08-10T00:30:00Z"}},{"type":"Feature","geometry":{"type":"Point","coordinates":[2.78388,49.98111]},"properties":{"place":"Fricourt","label":"wounded: 2","datetime":"1916-08-10T00:30:00Z"}},{"type":"Feature","geometry":{"type":"Point","coordinates":[2.71357,49.99811]},"properties":{"place":"Fricourt","label":"wounded: 2","datetime":"1916-08-11T00:00:00Z"}},{"type":"Feature","geometry":{"type":"Point","coordinates":[2.78388,49.98111]},"properties":{"place":"Fricourt","label":"wounded: 2","datetime":"1916-08-11T00:00:00Z"}},{"type":"Feature","geometry":{"type":"Point","coordinates":[2.71357,49.99811]},"properties":{"place":"Fricourt","label":"wounded: 2","datetime":"1916-08-12T00:00:00Z"}},{"type":"Feature","geometry":{"type":"Point","coordinates":[2.78388,49.98111]},"properties":{"place":"Fricourt","label":"wounded: 2","datetime":"1916-08-12T00:00:00Z"}},{"type":"Feature","geometry":{"type":"Point","coordinates":[2.71357,49.99811]},"properties":{"place":"Fricourt","label":"wounded: 2","datetime":"1916-08-15T00:00:00Z"}},{"type":"Feature","geometry":{"type":"Point","coordinates":[2.78388,49.98111]},"properties":{"place":"Fricourt","label":"wounded: 2","datetime":"1916-08-15T00:00:00Z"}},{"type":"Feature","geometry":{"type":"Point","coordinates":[2.71357,49.99811]},"properties":{"place":"Fricourt","label":"sick: 1","datetime":"1916-08-15T00:00:00Z"}},{"type":"Feature","geometry":{"type":"Point","coordinates":[2.78388,49.98111]},"properties":{"place":"Fricourt","label":"sick: 1","datetime":"1916-08-15T00:00:00Z"}},{"type":"Feature","geometry":{"type":"Point","coordinates":[2.71357,49.99811]},"properties":{"place":"Fricourt","label":"wounded: 2","datetime":"1916-08-17T00:00:00Z"}},{"type":"Feature","geometry":{"type":"Point","coordinates":[2.78388,49.98111]},"properties":{"place":"Fricourt","label":"wounded: 2","datetime":"1916-08-17T00:00:00Z"}},{"type":"Feature","geometry":{"type":"Point","coordinates":[2.71357,49.99811]},"properties":{"place":"Fricourt","label":"wounded: 2","datetime":"1916-08-24T00:00:00Z"}},{"type":"Feature","geometry":{"type":"Point","coordinates":[2.78388,49.98111]},"properties":{"place":"Fricourt","label":"wounded: 2","datetime":"1916-08-24T00:00:00Z"}},{"type":"Feature","geometry":{"type":"Point","coordinates":[2.71357,49.99811]},"properties":{"place":"Fricourt","label":"wounded: 1","datetime":"1916-08-24T00:00:00Z"}},{"type":"Feature","geometry":{"type":"Point","coordinates":[2.78388,49.98111]},"properties":{"place":"Fricourt","label":"wounded: 1","datetime":"1916-08-24T00:00:00Z"}},{"type":"Feature","geometry":{"type":"Point","coordinates":[2.06718,50.3854]},"properties":{"place":"Grigny","label":"sick: 4","datetime":"1916-10-07T00:00:00Z"}},{"type":"Feature","geometry":{"type":"Point","coordinates":[2.65096,50.00091]},"properties":{"place":"Albert","label":"wounded: 1","datetime":"1916-10-09T00:00:00Z"}},{"type":"Feature","geometry":{"type":"Point","coordinates":[2.65096,50.00091]},"properties":{"place":"Albert","label":"sick: 1","datetime":"1916-10-27T00:00:00Z"}},{"type":"Feature","geometry":{"type":"Point","coordinates":[1.83147,50.61429]},"properties":{"place":"Doudeauville","label":"sick: 1","datetime":"1916-11-10T00:00:00Z"}},{"type":"Feature","geometry":{"type":"Point","coordinates":[2.12764,50.34906]},"properties":{"place":"Wail","label":"sick: 2","datetime":"1917-04-17T00:00:00Z"}},{"type":"Feature","geometry":{"type":"Point","coordinates":[2.82873,50.82131]},"properties":{"place":"Dickebusch","label":"wounded: 5","datetime":"1917-08-22T00:00:00Z"}},{"type":"Feature","geometry":{"type":"Point","coordinates":[2.82873,50.82131]},"properties":{"place":"Dickebusch","label":"wounded: 5","datetime":"1917-08-22T00:00:00Z"}},{"type":"Feature","geometry":{"type":"Point","coordinates":[2.82873,50.82131]},"properties":{"place":"Dickebusch","label":"wounded: 5","datetime":"1917-08-22T00:00:00Z"}},{"type":"Feature","geometry":{"type":"Point","coordinates":[2.82873,50.82131]},"properties":{"place":"Dickebusch","label":"wounded: 5","datetime":"1917-08-22T00:00:00Z"}},{"type":"Feature","geometry":{"type":"Point","coordinates":[2.82873,50.82131]},"properties":{"place":"Dickebusch","label":"wounded: 1","datetime":"1917-09-09T00:00:00Z"}},{"type":"Feature","geometry":{"type":"Point","coordinates":[2.82873,50.82131]},"properties":{"place":"Dickebusch","label":"wounded: 1","datetime":"1917-09-09T00:00:00Z"}},{"type":"Feature","geometry":{"type":"Point","coordinates":[2.82873,50.82131]},"properties":{"place":"Dickebusch","label":"wounded: 1","datetime":"1917-09-09T00:00:00Z"}},{"type":"Feature","geometry":{"type":"Point","coordinates":[2.82873,50.82131]},"properties":{"place":"Dickebusch","label":"wounded: 1","datetime":"1917-09-09T00:00:00Z"}},{"type":"Feature","geometry":{"type":"Point","coordinates":[2.82873,50.82131]},"properties":{"place":"Dickebusch","label":"wounded: 5","datetime":"1917-09-14T00:00:00Z"}},{"type":"Feature","geometry":{"type":"Point","coordinates":[2.82873,50.82131]},"properties":{"place":"Dickebusch","label":"wounded: 5","datetime":"1917-09-14T00:00:00Z"}},{"type":"Feature","geometry":{"type":"Point","coordinates":[2.82873,50.82131]},"properties":{"place":"Dickebusch","label":"wounded: 5","datetime":"1917-09-14T00:00:00Z"}},{"type":"Feature","geometry":{"type":"Point","coordinates":[2.82873,50.82131]},"properties":{"place":"Dickebusch","label":"wounded: 5","datetime":"1917-09-14T00:00:00Z"}},{"type":"Feature","geometry":{"type":"Point","coordinates":[2.95229,49.81429]},"properties":{"place":"Pargny","label":"killed: 1","datetime":"1918-03-23T00:00:00Z"}},{"type":"Feature","geometry":{"type":"Point","coordinates":[2.43446,50.12019]},"properties":{"place":"Sarton","label":"wounded: 1","datetime":"1918-08-21T23:30:00Z"}},{"type":"Feature","geometry":{"type":"Point","coordinates":[3.17906,49.96129]},"properties":{"place":"Hargicourt","label":"wounded: 2","datetime":"1918-10-08T16:00:00Z"}},{"type":"Feature","geometry":{"type":"Point","coordinates":[2.26956,50.4755]},"properties":{"place":"Heuchin","label":"killed: 1, wounded: 5","datetime":"1918-03-24T00:00:00Z"}},{"type":"Feature","geometry":{"type":"Point","coordinates":[1.7265,50.58132]},"properties":{"place":"Hubersent","label":"sick: 5","datetime":"1916-02-29T00:00:00Z"}},{"type":"Feature","geometry":{"type":"Point","coordinates":[2.78388,49.98111]},"properties":{"place":"Grove Town","label":"killed: 9","datetime":"1914-09-12T05:00:00Z"}},{"type":"Feature","geometry":{"type":"Point","coordinates":[2.64444,50.69489]},"properties":{"place":"Vieuxberquin","label":"killed: 1","datetime":"1914-10-12T18:00:00Z"}},{"type":"Feature","geometry":{"type":"Point","coordinates":[2.64444,50.69489]},"properties":{"place":"Vieuxberquin","label":"wounded: 6","datetime":"1914-10-12T18:00:00Z"}},{"type":"Feature","geometry":{"type":"Point","coordinates":[2.89764,50.76581]},"properties":{"place":"Messines","label":"casualties: 0","datetime":"1914-10-12T18:00:00Z"}},{"type":"Feature","geometry":{"type":"Point","coordinates":[2.89764,50.76581]},"properties":{"place":"Messines","label":"casualties: 0","datetime":"1914-10-12T18:00:00Z"}},{"type":"Feature","geometry":{"type":"Point","coordinates":[3.59667,49.4081]},"properties":{"place":"Soupir, SOUPIR","label":"wounded: 2","datetime":"1914-09-16T00:00:00Z"}},{"type":"Feature","geometry":{"type":"Point","coordinates":[2.48527,50.80109]},"properties":{"place":"Cassel, cassel","label":"wounded: 3","datetime":"1915-08-11T00:00:00Z"}},{"type":"Feature","geometry":{"type":"Point","coordinates":[2.34483,50.71108]},"properties":{"place":"Wardrecques","label":"casualties: 0","datetime":"1915-12-02T19:00:00Z"}},{"type":"Feature","geometry":{"type":"Point","coordinates":[2.72628,50.49001]},"properties":{"place":"Noyelles","label":"wounded: 1","datetime":"1915-12-05T00:00:00Z"}},{"type":"Feature","geometry":{"type":"Point","coordinates":[2.72628,50.49001]},"properties":{"place":"Noyelles","label":"wounded: 1","datetime":"1915-12-05T00:00:00Z"}},{"type":"Feature","geometry":{"type":"Point","coordinates":[2.72628,50.49001]},"properties":{"place":"Noyelles","label":"casualties: 0","datetime":"1915-12-06T15:40:00Z"}},{"type":"Feature","geometry":{"type":"Point","coordinates":[2.72628,50.49001]},"properties":{"place":"Noyelles","label":"casualties: 0","datetime":"1915-12-06T15:40:00Z"}},{"type":"Feature","geometry":{"type":"Point","coordinates":[2.72628,50.49001]},"properties":{"place":"Noyelles","label":"casualties: 0","datetime":"1915-12-07T00:00:00Z"}},{"type":"Feature","geometry":{"type":"Point","coordinates":[2.72628,50.49001]},"properties":{"place":"Noyelles","label":"casualties: 0","datetime":"1915-12-07T00:00:00Z"}},{"type":"Feature","geometry":{"type":"Point","coordinates":[2.72628,50.49001]},"properties":{"place":"Noyelles","label":"casualties: 0","datetime":"1915-12-09T14:00:00Z"}},{"type":"Feature","geometry":{"type":"Point","coordinates":[2.72628,50.49001]},"properties":{"place":"Noyelles","label":"casualties: 0","datetime":"1915-12-09T14:00:00Z"}},{"type":"Feature","geometry":{"type":"Point","coordinates":[2.72628,50.49001]},"properties":{"place":"Noyelles","label":"casualties: 0","datetime":"1915-12-10T14:30:00Z"}},{"type":"Feature","geometry":{"type":"Point","coordinates":[2.72628,50.49001]},"properties":{"place":"Noyelles","label":"casualties: 0","datetime":"1915-12-10T14:30:00Z"}},{"type":"Feature","geometry":{"type":"Point","coordinates":[2.72628,50.49001]},"properties":{"place":"Noyelles","label":"wounded: 1","datetime":"1915-12-11T00:00:00Z"}},{"type":"Feature","geometry":{"type":"Point","coordinates":[2.72628,50.49001]},"properties":{"place":"Noyelles","label":"wounded: 1","datetime":"1915-12-11T00:00:00Z"}},{"type":"Feature","geometry":{"type":"Point","coordinates":[2.72628,50.49001]},"properties":{"place":"Noyelles","label":"wounded: 1","datetime":"1915-12-12T09:00:00Z"}},{"type":"Feature","geometry":{"type":"Point","coordinates":[2.72628,50.49001]},"properties":{"place":"Noyelles","label":"wounded: 1","datetime":"1915-12-12T09:00:00Z"}},{"type":"Feature","geometry":{"type":"Point","coordinates":[2.72628,50.49001]},"properties":{"place":"Noyelles","label":"casualties: 0","datetime":"1915-12-12T09:00:00Z"}},{"type":"Feature","geometry":{"type":"Point","coordinates":[2.72628,50.49001]},"properties":{"place":"Noyelles","label":"casualties: 0","datetime":"1915-12-12T09:00:00Z"}},{"type":"Feature","geometry":{"type":"Point","coordinates":[2.72628,50.49001]},"properties":{"place":"Noyelles","label":"wounded: 1","datetime":"1915-12-13T18:00:00Z"}},{"type":"Feature","geometry":{"type":"Point","coordinates":[2.72628,50.49001]},"properties":{"place":"Noyelles","label":"wounded: 1","datetime":"1915-12-13T18:00:00Z"}},{"type":"Feature","geometry":{"type":"Point","coordinates":[2.72628,50.49001]},"properties":{"place":"Noyelles","label":"wounded: 1","datetime":"1915-12-16T00:00:00Z"}},{"type":"Feature","geometry":{"type":"Point","coordinates":[2.72628,50.49001]},"properties":{"place":"Noyelles","label":"wounded: 1","datetime":"1915-12-16T00:00:00Z"}},{"type":"Feature","geometry":{"type":"Point","coordinates":[2.72628,50.49001]},"properties":{"place":"Noyelles","label":"casualties: 0","datetime":"1915-12-23T12:00:00Z"}},{"type":"Feature","geometry":{"type":"Point","coordinates":[2.72628,50.49001]},"properties":{"place":"Noyelles","label":"casualties: 0","datetime":"1915-12-23T12:00:00Z"}},{"type":"Feature","geometry":{"type":"Point","coordinates":[2.72628,50.49001]},"properties":{"place":"Noyelles","label":"casualties: 0","datetime":"1915-12-24T10:20:00Z"}},{"type":"Feature","geometry":{"type":"Point","coordinates":[2.72628,50.49001]},"properties":{"place":"Noyelles","label":"casualties: 0","datetime":"1915-12-24T10:20:00Z"}},{"type":"Feature","geometry":{"type":"Point","coordinates":[2.72628,50.49001]},"properties":{"place":"Noyelles","label":"casualties: 0","datetime":"1915-12-26T00:00:00Z"}},{"type":"Feature","geometry":{"type":"Point","coordinates":[2.72628,50.49001]},"properties":{"place":"Noyelles","label":"casualties: 0","datetime":"1915-12-26T00:00:00Z"}},{"type":"Feature","geometry":{"type":"Point","coordinates":[2.72628,50.49001]},"properties":{"place":"Noyelles","label":"casualties: 0","datetime":"1915-12-27T22:00:00Z"}},{"type":"Feature","geometry":{"type":"Point","coordinates":[2.72628,50.49001]},"properties":{"place":"Noyelles","label":"casualties: 0","datetime":"1915-12-27T22:00:00Z"}},{"type":"Feature","geometry":{"type":"Point","coordinates":[2.72628,50.49001]},"properties":{"place":"Noyelles","label":"wounded: 8","datetime":"1915-12-28T00:00:00Z"}},{"type":"Feature","geometry":{"type":"Point","coordinates":[2.72628,50.49001]},"properties":{"place":"Noyelles","label":"wounded: 8","datetime":"1915-12-28T00:00:00Z"}},{"type":"Feature","geometry":{"type":"Point","coordinates":[2.72628,50.49001]},"properties":{"place":"Noyelles","label":"casualties: 0","datetime":"1915-12-29T00:00:00Z"}},{"type":"Feature","geometry":{"type":"Point","coordinates":[2.72628,50.49001]},"properties":{"place":"Noyelles","label":"casualties: 0","datetime":"1915-12-29T00:00:00Z"}},{"type":"Feature","geometry":{"type":"Point","coordinates":[2.72628,50.49001]},"properties":{"place":"Noyelles","label":"casualties: 0","datetime":"1915-12-30T16:40:00Z"}},{"type":"Feature","geometry":{"type":"Point","coordinates":[2.72628,50.49001]},"properties":{"place":"Noyelles","label":"casualties: 0","datetime":"1915-12-30T16:40:00Z"}},{"type":"Feature","geometry":{"type":"Point","coordinates":[2.72628,50.49001]},"properties":{"place":"Noyelles","label":"casualties: 0","datetime":"1915-12-31T00:00:00Z"}},{"type":"Feature","geometry":{"type":"Point","coordinates":[2.72628,50.49001]},"properties":{"place":"Noyelles","label":"casualties: 0","datetime":"1915-12-31T00:00:00Z"}},{"type":"Feature","geometry":{"type":"Point","coordinates":[2.72628,50.49001]},"properties":{"place":"Noyelles","label":"casualties: 0","datetime":"1916-01-01T19:12:00Z"}},{"type":"Feature","geometry":{"type":"Point","coordinates":[2.72628,50.49001]},"properties":{"place":"Noyelles","label":"casualties: 0","datetime":"1916-01-01T19:12:00Z"}},{"type":"Feature","geometry":{"type":"Point","coordinates":[2.72628,50.49001]},"properties":{"place":"Noyelles","label":"casualties: 0","datetime":"1916-01-02T00:00:00Z"}},{"type":"Feature","geometry":{"type":"Point","coordinates":[2.72628,50.49001]},"properties":{"place":"Noyelles","label":"casualties: 0","datetime":"1916-01-02T00:00:00Z"}},{"type":"Feature","geometry":{"type":"Point","coordinates":[2.72628,50.49001]},"properties":{"place":"Noyelles","label":"casualties: 0","datetime":"1916-01-03T00:00:00Z"}},{"type":"Feature","geometry":{"type":"Point","coordinates":[2.72628,50.49001]},"properties":{"place":"Noyelles","label":"casualties: 0","datetime":"1916-01-03T00:00:00Z"}},{"type":"Feature","geometry":{"type":"Point","coordinates":[2.72628,50.49001]},"properties":{"place":"Noyelles","label":"casualties: 0","datetime":"1916-01-04T00:00:00Z"}},{"type":"Feature","geometry":{"type":"Point","coordinates":[2.72628,50.49001]},"properties":{"place":"Noyelles","label":"casualties: 0","datetime":"1916-01-04T00:00:00Z"}},{"type":"Feature","geometry":{"type":"Point","coordinates":[2.72628,50.49001]},"properties":{"place":"Noyelles","label":"casualties: 0","datetime":"1916-01-05T00:00:00Z"}},{"type":"Feature","geometry":{"type":"Point","coordinates":[2.72628,50.49001]},"properties":{"place":"Noyelles","label":"casualties: 0","datetime":"1916-01-05T00:00:00Z"}},{"type":"Feature","geometry":{"type":"Point","coordinates":[2.72628,50.49001]},"properties":{"place":"Noyelles","label":"casualties: 0","datetime":"1916-01-06T18:00:00Z"}},{"type":"Feature","geometry":{"type":"Point","coordinates":[2.72628,50.49001]},"properties":{"place":"Noyelles","label":"casualties: 0","datetime":"1916-01-06T18:00:00Z"}},{"type":"Feature","geometry":{"type":"Point","coordinates":[2.72628,50.49001]},"properties":{"place":"Noyelles","label":"casualties: 0","datetime":"1916-01-08T00:00:00Z"}},{"type":"Feature","geometry":{"type":"Point","coordinates":[2.72628,50.49001]},"properties":{"place":"Noyelles","label":"casualties: 0","datetime":"1916-01-08T00:00:00Z"}},{"type":"Feature","geometry":{"type":"Point","coordinates":[2.72628,50.49001]},"properties":{"place":"Noyelles","label":"casualties: 0","datetime":"1916-01-09T00:00:00Z"}},{"type":"Feature","geometry":{"type":"Point","coordinates":[2.72628,50.49001]},"properties":{"place":"Noyelles","label":"casualties: 0","datetime":"1916-01-09T00:00:00Z"}},{"type":"Feature","geometry":{"type":"Point","coordinates":[2.72628,50.49001]},"properties":{"place":"Noyelles","label":"casualties: 0","datetime":"1916-01-10T00:00:00Z"}},{"type":"Feature","geometry":{"type":"Point","coordinates":[2.72628,50.49001]},"properties":{"place":"Noyelles","label":"casualties: 0","datetime":"1916-01-10T00:00:00Z"}},{"type":"Feature","geometry":{"type":"Point","coordinates":[2.72628,50.49001]},"properties":{"place":"Noyelles","label":"casualties: 0","datetime":"1916-01-11T00:00:00Z"}},{"type":"Feature","geometry":{"type":"Point","coordinates":[2.72628,50.49001]},"properties":{"place":"Noyelles","label":"casualties: 0","datetime":"1916-01-11T00:00:00Z"}},{"type":"Feature","geometry":{"type":"Point","coordinates":[2.72628,50.49001]},"properties":{"place":"Noyelles","label":"casualties: 0","datetime":"1916-01-15T22:00:00Z"}},{"type":"Feature","geometry":{"type":"Point","coordinates":[2.72628,50.49001]},"properties":{"place":"Noyelles","label":"casualties: 0","datetime":"1916-01-15T22:00:00Z"}},{"type":"Feature","geometry":{"type":"Point","coordinates":[2.72628,50.49001]},"properties":{"place":"Noyelles","label":"casualties: 0","datetime":"1916-01-16T14:05:00Z"}},{"type":"Feature","geometry":{"type":"Point","coordinates":[2.72628,50.49001]},"properties":{"place":"Noyelles","label":"casualties: 0","datetime":"1916-01-16T14:05:00Z"}},{"type":"Feature","geometry":{"type":"Point","coordinates":[2.72628,50.49001]},"properties":{"place":"Noyelles","label":"casualties: 0","datetime":"1916-01-17T13:00:00Z"}},{"type":"Feature","geometry":{"type":"Point","coordinates":[2.72628,50.49001]},"properties":{"place":"Noyelles","label":"casualties: 0","datetime":"1916-01-17T13:00:00Z"}},{"type":"Feature","geometry":{"type":"Point","coordinates":[4.21667,50.65]},"properties":{"place":"Philosophe","label":"casualties: 0","datetime":"1916-01-18T00:00:00Z"}},{"type":"Feature","geometry":{"type":"Point","coordinates":[4.21667,50.65]},"properties":{"place":"Philosophe","label":"casualties: 0","datetime":"1916-01-19T09:00:00Z"}},{"type":"Feature","geometry":{"type":"Point","coordinates":[4.21667,50.65]},"properties":{"place":"Philosophe","label":"casualties: 0","datetime":"1916-01-19T19:40:00Z"}},{"type":"Feature","geometry":{"type":"Point","coordinates":[3.0,49.58333]},"properties":{"place":"Noyan","label":"wounded: 2","datetime":"1914-08-29T00:00:00Z"}},{"type":"Feature","geometry":{"type":"Point","coordinates":[3.0,49.58333]},"properties":{"place":"Noyan","label":"wounded: 8","datetime":"1914-08-29T00:00:00Z"}},{"type":"Feature","geometry":{"type":"Point","coordinates":[3.0,49.58333]},"properties":{"place":"Noyan","label":"wounded: 8, missing: 1","datetime":"1914-08-29T00:00:00Z"}},{"type":"Feature","geometry":{"type":"Point","coordinates":[2.77737,49.28206]},"properties":{"place":"Nery","label":"killed: 12, wounded: 44","datetime":"1914-09-01T00:00:00Z"}},{"type":"Feature","geometry":{"type":"Point","coordinates":[2.88807,49.23359]},"properties":{"place":"Nery","label":"killed: 12, wounded: 44","datetime":"1914-09-01T00:00:00Z"}},{"type":"Feature","geometry":{"type":"Point","coordinates":[3.57071,49.40512]},"properties":{"place":"Chavonne, chavonne","label":"killed: 1","datetime":"1914-09-20T00:00:00Z"}},{"type":"Feature","geometry":{"type":"Point","coordinates":[3.57071,49.40512]},"properties":{"place":"Chavonne, chavonne","label":"killed: 1","datetime":"1914-09-20T00:00:00Z"}},{"type":"Feature","geometry":{"type":"Point","coordinates":[2.64125,50.64329]},"properties":{"place":"Merville","label":"wounded: 2","datetime":"1914-10-11T07:15:00Z"}},{"type":"Feature","geometry":{"type":"Point","coordinates":[2.89764,50.76581]},"properties":{"place":"Messines","label":"killed: 15, wounded: 49, missing: 2","datetime":"1914-10-31T11:30:00Z"}},{"type":"Feature","geometry":{"type":"Point","coordinates":[2.89764,50.76581]},"properties":{"place":"Messines","label":"killed: 15, wounded: 49, missing: 2","datetime":"1914-10-31T11:30:00Z"}},{"type":"Feature","geometry":{"type":"Point","coordinates":[2.89764,50.76581]},"properties":{"place":"Messines","label":"killed: 24, wounded: 10, prisoner: 32","datetime":"1914-10-31T11:30:00Z"}},{"type":"Feature","geometry":{"type":"Point","coordinates":[7.3119,48.32858]},"properties":{"place":"Neuve-Eglise","label":"wounded: 2","datetime":"1914-11-03T08:00:00Z"}},{"type":"Feature","geometry":{"type":"Point","coordinates":[2.85243,50.76021]},"properties":{"place":"Wulverghem","label":"killed: 2, wounded: 10","datetime":"1914-11-05T00:00:00Z"}},{"type":"Feature","geometry":{"type":"Point","coordinates":[2.85243,50.76021]},"properties":{"place":"Wulverghem","label":"killed: 2, wounded: 10","datetime":"1914-11-05T00:00:00Z"}},{"type":"Feature","geometry":{"type":"Point","coordinates":[3.46667,51.06667]},"properties":{"place":"Veldhoek","label":"wounded: 2","datetime":"1914-11-13T05:30:00Z"}},{"type":"Feature","geometry":{"type":"Point","coordinates":[3.46667,51.06667]},"properties":{"place":"Veldhoek","label":"wounded: 1","datetime":"1914-11-15T05:00:00Z"}},{"type":"Feature","geometry":{"type":"Point","coordinates":[3.46667,51.06667]},"properties":{"place":"Veldhoek","label":"wounded: 5","datetime":"1914-11-16T09:15:00Z"}},{"type":"Feature","geometry":{"type":"Point","coordinates":[2.88569,50.85114]},"properties":{"place":"Ypres","label":"wounded: 2","datetime":"1914-11-17T00:00:00Z"}},{"type":"Feature","geometry":{"type":"Point","coordinates":[2.88569,50.85114]},"properties":{"place":"Ypres","label":"wounded: 2","datetime":"1914-11-17T23:00:00Z"}},{"type":"Feature","geometry":{"type":"Point","coordinates":[2.92249,50.83464]},"properties":{"place":"Zillebeke","label":"wounded: 9","datetime":"1915-02-23T18:15:00Z"}},{"type":"Feature","geometry":{"type":"Point","coordinates":[2.98725,50.8726]},"properties":{"place":"Zillebeke","label":"wounded: 9","datetime":"1915-02-23T18:15:00Z"}},{"type":"Feature","geometry":{"type":"Point","coordinates":[2.92249,50.83464]},"properties":{"place":"Zillebeke","label":"wounded: 1","datetime":"1915-02-23T18:15:00Z"}},{"type":"Feature","geometry":{"type":"Point","coordinates":[2.98725,50.8726]},"properties":{"place":"Zillebeke","label":"wounded: 1","datetime":"1915-02-23T18:15:00Z"}},{"type":"Feature","geometry":{"type":"Point","coordinates":[2.92249,50.83464]},"properties":{"place":"Zillebeke","label":"killed: 1","datetime":"1915-02-24T00:00:00Z"}},{"type":"Feature","geometry":{"type":"Point","coordinates":[2.98725,50.8726]},"properties":{"place":"Zillebeke","label":"killed: 1","datetime":"1915-02-24T00:00:00Z"}},{"type":"Feature","geometry":{"type":"Point","coordinates":[2.92249,50.83464]},"properties":{"place":"Zillebeke","label":"killed: 1, wounded: 1","datetime":"1915-02-25T00:00:00Z"}},{"type":"Feature","geometry":{"type":"Point","coordinates":[2.98725,50.8726]},"properties":{"place":"Zillebeke","label":"killed: 1, wounded: 1","datetime":"1915-02-25T00:00:00Z"}},{"type":"Feature","geometry":{"type":"Point","coordinates":[2.92249,50.83464]},"properties":{"place":"Zillebeke","label":"wounded: 1","datetime":"1915-02-25T00:00:00Z"}},{"type":"Feature","geometry":{"type":"Point","coordinates":[2.98725,50.8726]},"properties":{"place":"Zillebeke","label":"wounded: 1","datetime":"1915-02-25T00:00:00Z"}},{"type":"Feature","geometry":{"type":"Point","coordinates":[2.92249,50.83464]},"properties":{"place":"Zillebeke","label":"wounded: 2","datetime":"1915-02-26T00:00:00Z"}},{"type":"Feature","geometry":{"type":"Point","coordinates":[2.98725,50.8726]},"properties":{"place":"Zillebeke","label":"wounded: 2","datetime":"1915-02-26T00:00:00Z"}},{"type":"Feature","geometry":{"type":"Point","coordinates":[2.92249,50.83464]},"properties":{"place":"Zillebeke","label":"wounded: 2","datetime":"1915-02-27T00:00:00Z"}},{"type":"Feature","geometry":{"type":"Point","coordinates":[2.98725,50.8726]},"properties":{"place":"Zillebeke","label":"wounded: 2","datetime":"1915-02-27T00:00:00Z"}},{"type":"Feature","geometry":{"type":"Point","coordinates":[2.92249,50.83464]},"properties":{"place":"Zillebeke","label":"wounded: 2","datetime":"1915-02-27T00:00:00Z"}},{"type":"Feature","geometry":{"type":"Point","coordinates":[2.98725,50.8726]},"properties":{"place":"Zillebeke","label":"wounded: 2","datetime":"1915-02-27T00:00:00Z"}},{"type":"Feature","geometry":{"type":"Point","coordinates":[2.64513,50.75507]},"properties":{"place":"Fletre","label":"wounded: 8","datetime":"1915-03-04T00:00:00Z"}},{"type":"Feature","geometry":{"type":"Point","coordinates":[2.60274,50.75838]},"properties":{"place":"Fletre","label":"wounded: 8","datetime":"1915-03-04T00:00:00Z"}},{"type":"Feature","geometry":{"type":"Point","coordinates":[2.82024,50.85485]},"properties":{"place":"Bellewaarde Lake","label":"killed: 30, wounded: 33","datetime":"1915-05-26T20:15:00Z"}},{"type":"Feature","geometry":{"type":"Point","coordinates":[2.83763,50.30171]},"properties":{"place":"Athies","label":"killed: 4, wounded: 22","datetime":"1917-04-11T17:50:00Z"}},{"type":"Feature","geometry":{"type":"Point","coordinates":[2.60614,50.35478]},"properties":{"place":"Agnieres","label":"wounded: 3","datetime":"1917-04-13T00:00:00Z"}},{"type":"Feature","geometry":{"type":"Point","coordinates":[6.17269,49.11911]},"properties":{"place":"Metz","label":"killed: 1, wounded: 23","datetime":"1917-11-22T00:00:00Z"}},{"type":"Feature","geometry":{"type":"Point","coordinates":[3.06428,50.0667]},"properties":{"place":"Metz","label":"killed: 1, wounded: 23","datetime":"1917-11-22T00:00:00Z"}},{"type":"Feature","geometry":{"type":"Point","coordinates":[6.17269,49.11911]},"properties":{"place":"Metz","label":"killed: 1","datetime":"1917-11-22T00:00:00Z"}},{"type":"Feature","geometry":{"type":"Point","coordinates":[3.06428,50.0667]},"properties":{"place":"Metz","label":"killed: 1","datetime":"1917-11-22T00:00:00Z"}},{"type":"Feature","geometry":{"type":"Point","coordinates":[6.17269,49.11911]},"properties":{"place":"Metz","label":"wounded: 3","datetime":"1917-11-22T00:00:00Z"}},{"type":"Feature","geometry":{"type":"Point","coordinates":[3.06428,50.0667]},"properties":{"place":"Metz","label":"wounded: 3","datetime":"1917-11-22T00:00:00Z"}},{"type":"Feature","geometry":{"type":"Point","coordinates":[6.17269,49.11911]},"properties":{"place":"Metz","label":"wounded: 20","datetime":"1917-11-22T00:00:00Z"}},{"type":"Feature","geometry":{"type":"Point","coordinates":[3.06428,50.0667]},"properties":{"place":"Metz","label":"wounded: 20","datetime":"1917-11-22T00:00:00Z"}},{"type":"Feature","geometry":{"type":"Point","coordinates":[2.84966,50.10379]},"properties":{"place":"Bapaume","label":"wounded: 10","datetime":"1917-11-26T00:00:00Z"}},{"type":"Feature","geometry":{"type":"Point","coordinates":[2.75768,49.92542]},"properties":{"place":"Cappy","label":"wounded: 3","datetime":"1917-12-04T22:30:00Z"}},{"type":"Feature","geometry":{"type":"Point","coordinates":[2.75768,49.92542]},"properties":{"place":"Cappy","label":"wounded: 3","datetime":"1917-12-04T22:30:00Z"}},{"type":"Feature","geometry":{"type":"Point","coordinates":[4.05499,49.90301]},"properties":{"place":"Buire","label":"wounded: 22","datetime":"1917-12-22T09:30:00Z"}},{"type":"Feature","geometry":{"type":"Point","coordinates":[0.24106,45.73804]},"properties":{"place":"Buire","label":"wounded: 22","datetime":"1917-12-22T09:30:00Z"}},{"type":"Feature","geometry":{"type":"Point","coordinates":[2.48916,50.0068]},"properties":{"place":"Hancourt, Vadencourt","label":"prisoner: 2","datetime":"1918-01-16T03:00:00Z"}},{"type":"Feature","geometry":{"type":"Point","coordinates":[2.48916,50.0068]},"properties":{"place":"Hancourt, Vadencourt","label":"wounded: 1","datetime":"1918-01-16T03:00:00Z"}},{"type":"Feature","geometry":{"type":"Point","coordinates":[4.05499,49.90301]},"properties":{"place":"Buire, buire","label":"wounded: 1, missing: 2","datetime":"1918-01-26T17:00:00Z"}},{"type":"Feature","geometry":{"type":"Point","coordinates":[3.14959,49.8755]},"properties":{"place":"Vermand","label":"killed: 1, wounded: 1","datetime":"1918-02-19T00:00:00Z"}},{"type":"Feature","geometry":{"type":"Point","coordinates":[3.07423,50.27945]},"properties":{"place":"Hamel","label":"killed: 6","datetime":"1918-03-30T12:30:00Z"}},{"type":"Feature","geometry":{"type":"Point","coordinates":[2.68437,50.55285]},"properties":{"place":"Hamel","label":"killed: 6","datetime":"1918-03-30T12:30:00Z"}},{"type":"Feature","geometry":{"type":"Point","coordinates":[2.52898,49.90527]},"properties":{"place":"Hamel","label":"killed: 6","datetime":"1918-03-30T12:30:00Z"}},{"type":"Feature","geometry":{"type":"Point","coordinates":[2.7769,50.00625]},"properties":{"place":"Montauban","label":"killed: 6, wounded: 25","datetime":"1918-03-25T00:00:00Z"}},{"type":"Feature","geometry":{"type":"Point","coordinates":[2.86246,50.40116]},"properties":{"place":"Mericourt","label":"wounded: 3","datetime":"1918-03-29T00:00:00Z"}},{"type":"Feature","geometry":{"type":"Point","coordinates":[2.65065,49.89196]},"properties":{"place":"Mericourt","label":"wounded: 3","datetime":"1918-03-29T00:00:00Z"}},{"type":"Feature","geometry":{"type":"Point","coordinates":[2.6309,49.97272]},"properties":{"place":"Mericourt","label":"wounded: 3","datetime":"1918-03-29T00:00:00Z"}},{"type":"Feature","geometry":{"type":"Point","coordinates":[2.44402,49.98982]},"properties":{"place":"Mericourt","label":"wounded: 3","datetime":"1918-03-29T00:00:00Z"}},{"type":"Feature","geometry":{"type":"Point","coordinates":[3.07423,50.27945]},"properties":{"place":"Le Hamel, Hamel","label":"wounded: 4","datetime":"1918-03-29T00:00:00Z"}},{"type":"Feature","geometry":{"type":"Point","coordinates":[3.07423,50.27945]},"properties":{"place":"Le Hamel, Hamel","label":"wounded: 5","datetime":"1918-03-30T00:00:00Z"}},{"type":"Feature","geometry":{"type":"Point","coordinates":[3.07423,50.27945]},"properties":{"place":"Le Hamel, Hamel","label":"killed: 7, wounded: 25, missing: 2","datetime":"1918-03-30T00:00:00Z"}},{"type":"Feature","geometry":{"type":"Point","coordinates":[5.14709,50.54365]},"properties":{"place":"Longpre","label":"killed: 20","datetime":"1918-08-08T09:15:00Z"}},{"type":"Feature","geometry":{"type":"Point","coordinates":[5.83262,49.57734]},"properties":{"place":"Longpre","label":"killed: 20","datetime":"1918-08-08T09:15:00Z"}},{"type":"Feature","geometry":{"type":"Point","coordinates":[5.14709,50.54365]},"properties":{"place":"Longpre","label":"prisoner: 26","datetime":"1918-08-08T09:15:00Z"}},{"type":"Feature","geometry":{"type":"Point","coordinates":[5.83262,49.57734]},"properties":{"place":"Longpre","label":"prisoner: 26","datetime":"1918-08-08T09:15:00Z"}},{"type":"Feature","geometry":{"type":"Point","coordinates":[5.14709,50.54365]},"properties":{"place":"Longpre","label":"prisoner: 30","datetime":"1918-08-08T09:15:00Z"}},{"type":"Feature","geometry":{"type":"Point","coordinates":[5.83262,49.57734]},"properties":{"place":"Longpre","label":"prisoner: 30","datetime":"1918-08-08T09:15:00Z"}},{"type":"Feature","geometry":{"type":"Point","coordinates":[5.14709,50.54365]},"properties":{"place":"Longpre","label":"killed: 7","datetime":"1918-08-08T09:15:00Z"}},{"type":"Feature","geometry":{"type":"Point","coordinates":[5.83262,49.57734]},"properties":{"place":"Longpre","label":"killed: 7","datetime":"1918-08-08T09:15:00Z"}},{"type":"Feature","geometry":{"type":"Point","coordinates":[5.14709,50.54365]},"properties":{"place":"Longpre","label":"prisoner: 2","datetime":"1918-08-08T09:15:00Z"}},{"type":"Feature","geometry":{"type":"Point","coordinates":[5.83262,49.57734]},"properties":{"place":"Longpre","label":"prisoner: 2","datetime":"1918-08-08T09:15:00Z"}},{"type":"Feature","geometry":{"type":"Point","coordinates":[2.86945,50.24732]},"properties":{"place":"Wiancourt","label":"killed: 1, wounded: 5","datetime":"1918-10-08T19:00:00Z"}},{"type":"Feature","geometry":{"type":"Point","coordinates":[3.59667,49.4081]},"properties":{"place":"Soupir","label":"wounded: 1","datetime":"1914-09-15T04:40:00Z"}},{"type":"Feature","geometry":{"type":"Point","coordinates":[3.59667,49.4081]},"properties":{"place":"Soupir","label":"died: 1","datetime":"1914-09-15T04:40:00Z"}},{"type":"Feature","geometry":{"type":"Point","coordinates":[3.68333,49.38333]},"properties":{"place":"Oeuilly","label":"died: 1","datetime":"1914-09-15T03:00:00Z"}},{"type":"Feature","geometry":{"type":"Point","coordinates":[3.68333,49.38333]},"properties":{"place":"\u0152uilly, Oeuilly","label":"killed: 3, wounded: 5","datetime":"1914-09-18T05:00:00Z"}},{"type":"Feature","geometry":{"type":"Point","coordinates":[4.38833,46.70012]},"properties":{"place":"Blanzy","label":"killed: 11, wounded: 12","datetime":"1914-09-30T15:00:00Z"}},{"type":"Feature","geometry":{"type":"Point","coordinates":[2.64125,50.64329]},"properties":{"place":"Merville","label":"killed: 4, wounded: 7","datetime":"1914-10-13T14:00:00Z"}},{"type":"Feature","geometry":{"type":"Point","coordinates":[2.88019,50.72659]},"properties":{"place":"Ploegsteert","label":"killed: 1","datetime":"1914-10-17T06:00:00Z"}},{"type":"Feature","geometry":{"type":"Point","coordinates":[2.88019,50.72659]},"properties":{"place":"Ploegsteert","label":"killed: 1, wounded: 1","datetime":"1914-10-17T21:00:00Z"}},{"type":"Feature","geometry":{"type":"Point","coordinates":[2.89764,50.76581]},"properties":{"place":"Messines","label":"killed: 2","datetime":"1914-10-30T08:00:00Z"}},{"type":"Feature","geometry":{"type":"Point","coordinates":[2.85243,50.76021]},"properties":{"place":"Wulverghem, wulverghem","label":"killed: 1, wounded: 21","datetime":"1914-11-02T16:00:00Z"}},{"type":"Feature","geometry":{"type":"Point","coordinates":[2.69506,50.78305]},"properties":{"place":"Berthen","label":"wounded: 1","datetime":"1914-11-04T13:00:00Z"}},{"type":"Feature","geometry":{"type":"Point","coordinates":[2.85243,50.76021]},"properties":{"place":"Wulverghem","label":"casualties: 0","datetime":"1914-11-06T12:50:00Z"}},{"type":"Feature","geometry":{"type":"Point","coordinates":[2.85243,50.76021]},"properties":{"place":"Wulverghem","label":"casualties: 0","datetime":"1914-11-06T12:50:00Z"}},{"type":"Feature","geometry":{"type":"Point","coordinates":[2.91288,50.86011]},"properties":{"place":"Potijze","label":"killed: 1","datetime":"1914-11-17T05:30:00Z"}},{"type":"Feature","geometry":{"type":"Point","coordinates":[2.91288,50.86011]},"properties":{"place":"Potijze","label":"killed: 1","datetime":"1914-11-17T05:30:00Z"}},{"type":"Feature","geometry":{"type":"Point","coordinates":[2.91288,50.86011]},"properties":{"place":"Potijze","label":"killed: 1","datetime":"1914-11-17T05:30:00Z"}},{"type":"Feature","geometry":{"type":"Point","coordinates":[2.72228,50.76387]},"properties":{"place":"Saint Jans Cappel","label":"killed: 1, wounded: 6","datetime":"1914-11-18T00:00:00Z"}},{"type":"Feature","geometry":{"type":"Point","coordinates":[2.72228,50.76387]},"properties":{"place":"Saint Jans Cappel","label":"sick: 9","datetime":"1914-11-18T09:00:00Z"}},{"type":"Feature","geometry":{"type":"Point","coordinates":[2.72228,50.76387]},"properties":{"place":"Saint Jans Cappel","label":"wounded: 3","datetime":"1914-11-23T02:00:00Z"}},{"type":"Feature","geometry":{"type":"Point","coordinates":[2.88569,50.85114]},"properties":{"place":"Ypres","label":"casualties: 0","datetime":"1915-02-25T00:00:00Z"}},{"type":"Feature","geometry":{"type":"Point","coordinates":[2.88569,50.85114]},"properties":{"place":"Ypres","label":"killed: 4, wounded: 15, sick: 1","datetime":"1915-03-05T17:00:00Z"}},{"type":"Feature","geometry":{"type":"Point","coordinates":[2.91288,50.86011]},"properties":{"place":"Potijze, Potiuze","label":"killed: 1, wounded: 3","datetime":"1915-05-12T01:00:00Z"}},{"type":"Feature","geometry":{"type":"Point","coordinates":[2.91288,50.86011]},"properties":{"place":"Potijze, Potiuze","label":"killed: 1, wounded: 3","datetime":"1915-05-12T01:00:00Z"}},{"type":"Feature","geometry":{"type":"Point","coordinates":[2.91288,50.86011]},"properties":{"place":"Potijze","label":"killed: 6, wounded: 19, missing: 2","datetime":"1915-05-13T19:00:00Z"}},{"type":"Feature","geometry":{"type":"Point","coordinates":[2.91288,50.86011]},"properties":{"place":"Potijze","label":"killed: 6, wounded: 19, missing: 2","datetime":"1915-05-13T19:00:00Z"}},{"type":"Feature","geometry":{"type":"Point","coordinates":[2.91288,50.86011]},"properties":{"place":"Potijze","label":"killed: 6, wounded: 19, missing: 2","datetime":"1915-05-13T19:00:00Z"}},{"type":"Feature","geometry":{"type":"Point","coordinates":[2.91288,50.86011]},"properties":{"place":"Potijze","label":"killed: 6, wounded: 18","datetime":"1915-05-13T19:00:00Z"}},{"type":"Feature","geometry":{"type":"Point","coordinates":[2.91288,50.86011]},"properties":{"place":"Potijze","label":"killed: 6, wounded: 18","datetime":"1915-05-13T19:00:00Z"}},{"type":"Feature","geometry":{"type":"Point","coordinates":[2.91288,50.86011]},"properties":{"place":"Potijze","label":"killed: 6, wounded: 18","datetime":"1915-05-13T19:00:00Z"}},{"type":"Feature","geometry":{"type":"Point","coordinates":[2.91288,50.86011]},"properties":{"place":"Potijze","label":"missing: 2","datetime":"1915-05-13T19:00:00Z"}},{"type":"Feature","geometry":{"type":"Point","coordinates":[2.91288,50.86011]},"properties":{"place":"Potijze","label":"missing: 2","datetime":"1915-05-13T19:00:00Z"}},{"type":"Feature","geometry":{"type":"Point","coordinates":[2.91288,50.86011]},"properties":{"place":"Potijze","label":"missing: 2","datetime":"1915-05-13T19:00:00Z"}},{"type":"Feature","geometry":{"type":"Point","coordinates":[2.91288,50.86011]},"properties":{"place":"Potijze","label":"killed: 6, wounded: 19, missing: 2","datetime":"1915-05-13T19:00:00Z"}},{"type":"Feature","geometry":{"type":"Point","coordinates":[2.91288,50.86011]},"properties":{"place":"Potijze","label":"killed: 6, wounded: 19, missing: 2","datetime":"1915-05-13T19:00:00Z"}},{"type":"Feature","geometry":{"type":"Point","coordinates":[2.91288,50.86011]},"properties":{"place":"Potijze","label":"killed: 6, wounded: 19, missing: 2","datetime":"1915-05-13T19:00:00Z"}},{"type":"Feature","geometry":{"type":"Point","coordinates":[2.92377,50.83747]},"properties":{"place":"Hooge","label":"killed: 1","datetime":"1915-05-24T12:00:00Z"}},{"type":"Feature","geometry":{"type":"Point","coordinates":[2.92377,50.83747]},"properties":{"place":"Hooge","label":"killed: 1","datetime":"1915-05-24T12:00:00Z"}},{"type":"Feature","geometry":{"type":"Point","coordinates":[7.35978,53.10793]},"properties":{"place":"Hooge","label":"killed: 1","datetime":"1915-05-24T12:00:00Z"}},{"type":"Feature","geometry":{"type":"Point","coordinates":[2.92377,50.83747]},"properties":{"place":"Hooge","label":"killed: 3","datetime":"1915-05-24T19:30:00Z"}},{"type":"Feature","geometry":{"type":"Point","coordinates":[2.92377,50.83747]},"properties":{"place":"Hooge","label":"killed: 3","datetime":"1915-05-24T19:30:00Z"}},{"type":"Feature","geometry":{"type":"Point","coordinates":[7.35978,53.10793]},"properties":{"place":"Hooge","label":"killed: 3","datetime":"1915-05-24T19:30:00Z"}},{"type":"Feature","geometry":{"type":"Point","coordinates":[2.83763,50.30171]},"properties":{"place":"Athies","label":"killed: 1, wounded: 3","datetime":"1917-04-11T19:45:00Z"}},{"type":"Feature","geometry":{"type":"Point","coordinates":[3.10891,50.14711]},"properties":{"place":"Graincourt","label":"wounded: 1","datetime":"1917-11-21T23:30:00Z"}},{"type":"Feature","geometry":{"type":"Point","coordinates":[3.08644,50.11163]},"properties":{"place":"Havrincourt","label":"killed: 1","datetime":"1917-11-22T07:00:00Z"}},{"type":"Feature","geometry":{"type":"Point","coordinates":[3.08644,50.11163]},"properties":{"place":"Havrincourt","label":"killed: 1, wounded: 1","datetime":"1917-11-22T07:00:00Z"}},{"type":"Feature","geometry":{"type":"Point","coordinates":[3.08644,50.11163]},"properties":{"place":"Havrincourt","label":"wounded: 1","datetime":"1917-11-22T07:00:00Z"}},{"type":"Feature","geometry":{"type":"Point","coordinates":[2.76652,49.95081]},"properties":{"place":"Suzanne","label":"wounded: 4","datetime":"1917-11-27T10:30:00Z"}},{"type":"Feature","geometry":{"type":"Point","coordinates":[4.05499,49.90301]},"properties":{"place":"Buire","label":"wounded: 1","datetime":"1918-01-26T00:00:00Z"}},{"type":"Feature","geometry":{"type":"Point","coordinates":[0.24106,45.73804]},"properties":{"place":"Buire","label":"wounded: 1","datetime":"1918-01-26T00:00:00Z"}},{"type":"Feature","geometry":{"type":"Point","coordinates":[4.05499,49.90301]},"properties":{"place":"Buire","label":"missing: 2","datetime":"1918-01-26T00:00:00Z"}},{"type":"Feature","geometry":{"type":"Point","coordinates":[0.24106,45.73804]},"properties":{"place":"Buire","label":"missing: 2","datetime":"1918-01-26T00:00:00Z"}},{"type":"Feature","geometry":{"type":"Point","coordinates":[4.05499,49.90301]},"properties":{"place":"Buire","label":"wounded: 1, missing: 2","datetime":"1918-01-26T00:00:00Z"}},{"type":"Feature","geometry":{"type":"Point","coordinates":[0.24106,45.73804]},"properties":{"place":"Buire","label":"wounded: 1, missing: 2","datetime":"1918-01-26T00:00:00Z"}},{"type":"Feature","geometry":{"type":"Point","coordinates":[4.05499,49.90301]},"properties":{"place":"Buire","label":"wounded: 1","datetime":"1918-02-28T00:00:00Z"}},{"type":"Feature","geometry":{"type":"Point","coordinates":[0.24106,45.73804]},"properties":{"place":"Buire","label":"wounded: 1","datetime":"1918-02-28T00:00:00Z"}},{"type":"Feature","geometry":{"type":"Point","coordinates":[4.05499,49.90301]},"properties":{"place":"Buire","label":"killed: 2","datetime":"1918-02-28T00:00:00Z"}},{"type":"Feature","geometry":{"type":"Point","coordinates":[0.24106,45.73804]},"properties":{"place":"Buire","label":"killed: 2","datetime":"1918-02-28T00:00:00Z"}},{"type":"Feature","geometry":{"type":"Point","coordinates":[4.05499,49.90301]},"properties":{"place":"Buire","label":"killed: 1, wounded: 6","datetime":"1918-03-09T00:00:00Z"}},{"type":"Feature","geometry":{"type":"Point","coordinates":[0.24106,45.73804]},"properties":{"place":"Buire","label":"killed: 1, wounded: 6","datetime":"1918-03-09T00:00:00Z"}},{"type":"Feature","geometry":{"type":"Point","coordinates":[4.05499,49.90301]},"properties":{"place":"Buire","label":"killed: 1","datetime":"1918-03-09T00:00:00Z"}},{"type":"Feature","geometry":{"type":"Point","coordinates":[0.24106,45.73804]},"properties":{"place":"Buire","label":"killed: 1","datetime":"1918-03-09T00:00:00Z"}},{"type":"Feature","geometry":{"type":"Point","coordinates":[4.05499,49.90301]},"properties":{"place":"Buire","label":"wounded: 1","datetime":"1918-03-09T00:00:00Z"}},{"type":"Feature","geometry":{"type":"Point","coordinates":[0.24106,45.73804]},"properties":{"place":"Buire","label":"wounded: 1","datetime":"1918-03-09T00:00:00Z"}},{"type":"Feature","geometry":{"type":"Point","coordinates":[4.05499,49.90301]},"properties":{"place":"Buire","label":"wounded: 5","datetime":"1918-03-09T00:00:00Z"}},{"type":"Feature","geometry":{"type":"Point","coordinates":[0.24106,45.73804]},"properties":{"place":"Buire","label":"wounded: 5","datetime":"1918-03-09T00:00:00Z"}},{"type":"Feature","geometry":{"type":"Point","coordinates":[2.60895,49.91226]},"properties":{"place":"Sailly-Laurette","label":"prisoner: 10","datetime":"1918-03-27T13:00:00Z"}},{"type":"Feature","geometry":{"type":"Point","coordinates":[2.60895,49.91226]},"properties":{"place":"Sailly-Laurette","label":"wounded: 7","datetime":"1918-03-28T17:00:00Z"}},{"type":"Feature","geometry":{"type":"Point","coordinates":[3.07423,50.27945]},"properties":{"place":"Hamel","label":"killed: 12, wounded: 98, missing: 19","datetime":"1918-03-31T03:00:00Z"}},{"type":"Feature","geometry":{"type":"Point","coordinates":[2.68437,50.55285]},"properties":{"place":"Hamel","label":"killed: 12, wounded: 98, missing: 19","datetime":"1918-03-31T03:00:00Z"}},{"type":"Feature","geometry":{"type":"Point","coordinates":[2.52898,49.90527]},"properties":{"place":"Hamel","label":"killed: 12, wounded: 98, missing: 19","datetime":"1918-03-31T03:00:00Z"}},{"type":"Feature","geometry":{"type":"Point","coordinates":[2.3,49.9]},"properties":{"place":"Amiens","label":"wounded: 3","datetime":"1918-04-05T00:00:00Z"}},{"type":"Feature","geometry":{"type":"Point","coordinates":[2.3,49.9]},"properties":{"place":"Amiens","label":"wounded: 3","datetime":"1918-04-05T00:00:00Z"}},{"type":"Feature","geometry":{"type":"Point","coordinates":[2.34486,49.88764]},"properties":{"place":"Amiens","label":"wounded: 3","datetime":"1918-04-05T00:00:00Z"}},{"type":"Feature","geometry":{"type":"Point","coordinates":[2.3,49.9]},"properties":{"place":"Amiens","label":"wounded: 30","datetime":"1918-04-05T00:00:00Z"}},{"type":"Feature","geometry":{"type":"Point","coordinates":[2.3,49.9]},"properties":{"place":"Amiens","label":"wounded: 30","datetime":"1918-04-05T00:00:00Z"}},{"type":"Feature","geometry":{"type":"Point","coordinates":[2.34486,49.88764]},"properties":{"place":"Amiens","label":"wounded: 30","datetime":"1918-04-05T00:00:00Z"}},{"type":"Feature","geometry":{"type":"Point","coordinates":[1.92012,50.32177]},"properties":{"place":"Tortefontaine","label":"sick: 184","datetime":"1918-06-30T00:00:00Z"}},{"type":"Feature","geometry":{"type":"Point","coordinates":[2.63174,49.84254]},"properties":{"place":"Guillaucourt","label":"wounded: 11","datetime":"1918-08-09T08:30:00Z"}},{"type":"Feature","geometry":{"type":"Point","coordinates":[2.63174,49.84254]},"properties":{"place":"Guillaucourt","label":"wounded: 12","datetime":"1918-08-09T08:30:00Z"}},{"type":"Feature","geometry":{"type":"Point","coordinates":[2.6948,49.7989]},"properties":{"place":"Vrely","label":"killed: 1, wounded: 19","datetime":"1918-08-11T18:45:00Z"}},{"type":"Feature","geometry":{"type":"Point","coordinates":[2.6948,49.7989]},"properties":{"place":"Vrely","label":"killed: 1, wounded: 19","datetime":"1918-08-11T18:45:00Z"}},{"type":"Feature","geometry":{"type":"Point","coordinates":[2.82441,50.16123]},"properties":{"place":"Ervillers","label":"wounded: 1","datetime":"1918-08-21T11:25:00Z"}},{"type":"Feature","geometry":{"type":"Point","coordinates":[2.82441,50.16123]},"properties":{"place":"Ervillers","label":"wounded: 1","datetime":"1918-08-21T11:00:00Z"}},{"type":"Feature","geometry":{"type":"Point","coordinates":[3.31361,50.10091]},"properties":{"place":"Esnes","label":"killed: 2, wounded: 16","datetime":"1918-10-31T00:00:00Z"}},{"type":"Feature","geometry":{"type":"Point","coordinates":[2.7321,49.31115]},"properties":{"place":"verberie","label":"killed: 20","datetime":"1914-09-01T00:00:00Z"}},{"type":"Feature","geometry":{"type":"Point","coordinates":[2.7321,49.31115]},"properties":{"place":"verberie","label":"killed: 29","datetime":"1914-09-01T00:00:00Z"}},{"type":"Feature","geometry":{"type":"Point","coordinates":[-1.40428,50.90395]},"properties":{"place":"Southampton","label":"casualties: 0","datetime":"1914-08-16T00:00:00Z"}},{"type":"Feature","geometry":{"type":"Point","coordinates":[-1.40428,50.90395]},"properties":{"place":"Southampton","label":"casualties: 0","datetime":"1914-08-16T00:00:00Z"}},{"type":"Feature","geometry":{"type":"Point","coordinates":[-0.88333,52.25]},"properties":{"place":"Southampton","label":"casualties: 0","datetime":"1914-08-16T00:00:00Z"}},{"type":"Feature","geometry":{"type":"Point","coordinates":[4.07129,50.57904]},"properties":{"place":"Soignies","label":"prisoner: 3","datetime":"1914-08-22T00:00:00Z"}},{"type":"Feature","geometry":{"type":"Point","coordinates":[3.74007,50.43006]},"properties":{"place":"Thulin","label":"wounded: 81","datetime":"1914-08-25T13:30:00Z"}},{"type":"Feature","geometry":{"type":"Point","coordinates":[3.0,49.58333]},"properties":{"place":"Noyon","label":"missing: 20","datetime":"1914-08-30T12:00:00Z"}},{"type":"Feature","geometry":{"type":"Point","coordinates":[3.72128,50.38324]},"properties":{"place":"Audregnies","label":"wounded: 81","datetime":"1914-08-24T00:00:00Z"}},{"type":"Feature","geometry":{"type":"Point","coordinates":[3.05127,49.6566]},"properties":{"place":"Guiscard","label":"missing: 19","datetime":"1914-08-29T12:00:00Z"}},{"type":"Feature","geometry":{"type":"Point","coordinates":[3.05127,49.6566]},"properties":{"place":"Guiscard","label":"missing: 20","datetime":"1914-08-29T12:00:00Z"}},{"type":"Feature","geometry":{"type":"Point","coordinates":[3.09003,49.25311]},"properties":{"place":"Villers","label":"killed: 4, wounded: 5","datetime":"1914-09-13T09:50:00Z"}},{"type":"Feature","geometry":{"type":"Point","coordinates":[4.79364,49.60321]},"properties":{"place":"Vendresse","label":"wounded: 1","datetime":"1914-09-13T16:00:00Z"}},{"type":"Feature","geometry":{"type":"Point","coordinates":[2.80387,50.02544]},"properties":{"place":"Longueval","label":"wounded: 6","datetime":"1914-09-20T23:00:00Z"}},{"type":"Feature","geometry":{"type":"Point","coordinates":[3.24677,48.51503]},"properties":{"place":"Longueval","label":"wounded: 6","datetime":"1914-09-20T23:00:00Z"}},{"type":"Feature","geometry":{"type":"Point","coordinates":[2.80387,50.02544]},"properties":{"place":"Longueval","label":"killed: 1, wounded: 40","datetime":"1914-09-29T00:00:00Z"}},{"type":"Feature","geometry":{"type":"Point","coordinates":[3.24677,48.51503]},"properties":{"place":"Longueval","label":"killed: 1, wounded: 40","datetime":"1914-09-29T00:00:00Z"}},{"type":"Feature","geometry":{"type":"Point","coordinates":[2.88333,50.73333]},"properties":{"place":"Bois de Floegsteert, Bois de Ploegsteert, Bois De Ploegsteert, BOIS de PLOEGSTEERT","label":"killed: 2","datetime":"1914-10-21T00:00:00Z"}},{"type":"Feature","geometry":{"type":"Point","coordinates":[2.85243,50.76021]},"properties":{"place":"Wulverghem","label":"wounded: 1","datetime":"1914-11-01T00:00:00Z"}},{"type":"Feature","geometry":{"type":"Point","coordinates":[2.85243,50.76021]},"properties":{"place":"Wulverghem","label":"wounded: 1","datetime":"1914-11-01T00:00:00Z"}},{"type":"Feature","geometry":{"type":"Point","coordinates":[2.85243,50.76021]},"properties":{"place":"Wulverghem","label":"killed: 1","datetime":"1914-11-01T00:00:00Z"}},{"type":"Feature","geometry":{"type":"Point","coordinates":[2.85243,50.76021]},"properties":{"place":"Wulverghem","label":"killed: 1","datetime":"1914-11-01T00:00:00Z"}},{"type":"Feature","geometry":{"type":"Point","coordinates":[2.7839,50.76602]},"properties":{"place":"Dranoutre","label":"killed: 1","datetime":"1914-11-03T00:00:00Z"}},{"type":"Feature","geometry":{"type":"Point","coordinates":[2.7839,50.76602]},"properties":{"place":"Dranoutre","label":"killed: 1","datetime":"1914-11-03T00:00:00Z"}},{"type":"Feature","geometry":{"type":"Point","coordinates":[2.7839,50.76602]},"properties":{"place":"Dranoutre","label":"wounded: 1","datetime":"1914-11-03T00:00:00Z"}},{"type":"Feature","geometry":{"type":"Point","coordinates":[2.7839,50.76602]},"properties":{"place":"Dranoutre","label":"wounded: 1","datetime":"1914-11-03T00:00:00Z"}},{"type":"Feature","geometry":{"type":"Point","coordinates":[2.7839,50.76602]},"properties":{"place":"Dranoutre","label":"wounded: 36","datetime":"1914-11-03T00:00:00Z"}},{"type":"Feature","geometry":{"type":"Point","coordinates":[2.7839,50.76602]},"properties":{"place":"Dranoutre","label":"wounded: 36","datetime":"1914-11-03T00:00:00Z"}},{"type":"Feature","geometry":{"type":"Point","coordinates":[2.92377,50.83747]},"properties":{"place":"Hooge, Hoge","label":"wounded: 2","datetime":"1914-11-18T00:00:00Z"}},{"type":"Feature","geometry":{"type":"Point","coordinates":[2.92377,50.83747]},"properties":{"place":"Hooge, Hoge","label":"wounded: 2","datetime":"1914-11-18T00:00:00Z"}},{"type":"Feature","geometry":{"type":"Point","coordinates":[2.72228,50.76387]},"properties":{"place":"St Jans Cappel","label":"casualties: 0","datetime":"1914-11-23T01:30:00Z"}},{"type":"Feature","geometry":{"type":"Point","coordinates":[2.88569,50.85114]},"properties":{"place":"Ypres","label":"casualties: 0","datetime":"1915-02-25T22:30:00Z"}},{"type":"Feature","geometry":{"type":"Point","coordinates":[2.58244,50.81046]},"properties":{"place":"Steenvoorde","label":"casualties: 0","datetime":"1915-04-19T00:00:00Z"}},{"type":"Feature","geometry":{"type":"Point","coordinates":[2.58244,50.81046]},"properties":{"place":"Steenvoorde","label":"casualties: 0","datetime":"1915-04-19T00:00:00Z"}},{"type":"Feature","geometry":{"type":"Point","coordinates":[2.8171,50.88476]},"properties":{"place":"Elverdinghe","label":"killed: 4, wounded: 3","datetime":"1915-04-24T10:00:00Z"}},{"type":"Feature","geometry":{"type":"Point","coordinates":[2.8171,50.88476]},"properties":{"place":"Elverdinghe","label":"killed: 4, wounded: 3","datetime":"1915-04-24T10:00:00Z"}},{"type":"Feature","geometry":{"type":"Point","coordinates":[2.88569,50.85114]},"properties":{"place":"Elverdinghe","label":"killed: 4, wounded: 3","datetime":"1915-04-24T10:00:00Z"}},{"type":"Feature","geometry":{"type":"Point","coordinates":[2.8171,50.88476]},"properties":{"place":"Elverdinghe","label":"killed: 3, wounded: 3","datetime":"1915-04-24T10:00:00Z"}},{"type":"Feature","geometry":{"type":"Point","coordinates":[2.8171,50.88476]},"properties":{"place":"Elverdinghe","label":"killed: 3, wounded: 3","datetime":"1915-04-24T10:00:00Z"}},{"type":"Feature","geometry":{"type":"Point","coordinates":[2.88569,50.85114]},"properties":{"place":"Elverdinghe","label":"killed: 3, wounded: 3","datetime":"1915-04-24T10:00:00Z"}},{"type":"Feature","geometry":{"type":"Point","coordinates":[2.82024,50.85485]},"properties":{"place":"Vlamertinche","label":"wounded: 75","datetime":"1915-05-24T21:00:00Z"}},{"type":"Feature","geometry":{"type":"Point","coordinates":[2.82024,50.85485]},"properties":{"place":"Vlamertinche","label":"wounded: 1","datetime":"1915-03-01T00:00:00Z"}},{"type":"Feature","geometry":{"type":"Point","coordinates":[2.82024,50.85485]},"properties":{"place":"Vlamertinche","label":"wounded: 2","datetime":"1915-03-02T00:00:00Z"}},{"type":"Feature","geometry":{"type":"Point","coordinates":[2.82024,50.85485]},"properties":{"place":"Vlamertinche","label":"casualties: 0","datetime":"1915-03-03T00:00:00Z"}},{"type":"Feature","geometry":{"type":"Point","coordinates":[2.7,50.73333]},"properties":{"place":"METEREN, Meteren","label":"sick: 1","datetime":"1915-03-12T05:00:00Z"}},{"type":"Feature","geometry":{"type":"Point","coordinates":[2.60942,50.05949]},"properties":{"place":"englebelmer","label":"casualties: 0","datetime":"1915-12-04T00:00:00Z"}},{"type":"Feature","geometry":{"type":"Point","coordinates":[2.71847,49.94085]},"properties":{"place":"Bray sur Somme","label":"wounded: 2","datetime":"1916-02-02T00:00:00Z"}},{"type":"Feature","geometry":{"type":"Point","coordinates":[2.71847,49.94085]},"properties":{"place":"Bray sur Somme","label":"died: 1, wounded: 1","datetime":"1916-02-02T00:00:00Z"}},{"type":"Feature","geometry":{"type":"Point","coordinates":[2.71847,49.94085]},"properties":{"place":"Bray sur Somme","label":"wounded: 1","datetime":"1916-02-05T00:00:00Z"}},{"type":"Feature","geometry":{"type":"Point","coordinates":[2.71847,49.94085]},"properties":{"place":"Bray sur Somme","label":"wounded: 2","datetime":"1916-02-12T18:00:00Z"}},{"type":"Feature","geometry":{"type":"Point","coordinates":[2.71847,49.94085]},"properties":{"place":"Bray sur Somme","label":"died: 1, wounded: 1","datetime":"1916-02-12T18:00:00Z"}},{"type":"Feature","geometry":{"type":"Point","coordinates":[2.71847,49.94085]},"properties":{"place":"Bray sur Somme","label":"wounded: 1","datetime":"1916-02-13T00:00:00Z"}},{"type":"Feature","geometry":{"type":"Point","coordinates":[2.71847,49.94085]},"properties":{"place":"Bray sur Somme","label":"died: 1","datetime":"1916-02-13T00:00:00Z"}},{"type":"Feature","geometry":{"type":"Point","coordinates":[2.71847,49.94085]},"properties":{"place":"Bray sur Somme","label":"died: 1, wounded: 1","datetime":"1916-02-14T00:00:00Z"}},{"type":"Feature","geometry":{"type":"Point","coordinates":[2.71847,49.94085]},"properties":{"place":"Bray sur Somme","label":"wounded: 3","datetime":"1916-02-15T00:00:00Z"}},{"type":"Feature","geometry":{"type":"Point","coordinates":[2.71847,49.94085]},"properties":{"place":"Bray sur Somme","label":"wounded: 1","datetime":"1916-02-23T15:00:00Z"}},{"type":"Feature","geometry":{"type":"Point","coordinates":[2.71847,49.94085]},"properties":{"place":"Bray sur Somme","label":"wounded: 4","datetime":"1916-02-24T00:00:00Z"}},{"type":"Feature","geometry":{"type":"Point","coordinates":[2.71847,49.94085]},"properties":{"place":"Bray sur Somme","label":"wounded: 1","datetime":"1916-02-26T19:30:00Z"}},{"type":"Feature","geometry":{"type":"Point","coordinates":[2.82024,50.85485]},"properties":{"place":"In the trenches","label":"wounded: 5","datetime":"1916-02-28T00:00:00Z"}},{"type":"Feature","geometry":{"type":"Point","coordinates":[2.71847,49.94085]},"properties":{"place":"Bray","label":"wounded: 1","datetime":"1916-03-05T00:00:00Z"}},{"type":"Feature","geometry":{"type":"Point","coordinates":[2.43191,49.9099]},"properties":{"place":"Bray","label":"wounded: 1","datetime":"1916-03-05T00:00:00Z"}},{"type":"Feature","geometry":{"type":"Point","coordinates":[2.5094,49.93772]},"properties":{"place":"Bray","label":"wounded: 1","datetime":"1916-03-05T00:00:00Z"}},{"type":"Feature","geometry":{"type":"Point","coordinates":[2.78186,50.29301]},"properties":{"place":"Bray","label":"wounded: 1","datetime":"1916-03-05T00:00:00Z"}},{"type":"Feature","geometry":{"type":"Point","coordinates":[2.7558,49.98489]},"properties":{"place":"Bray","label":"wounded: 1","datetime":"1916-03-05T00:00:00Z"}},{"type":"Feature","geometry":{"type":"Point","coordinates":[2.71847,49.94085]},"properties":{"place":"Bray","label":"wounded: 3","datetime":"1916-03-05T00:00:00Z"}},{"type":"Feature","geometry":{"type":"Point","coordinates":[2.43191,49.9099]},"properties":{"place":"Bray","label":"wounded: 3","datetime":"1916-03-05T00:00:00Z"}},{"type":"Feature","geometry":{"type":"Point","coordinates":[2.5094,49.93772]},"properties":{"place":"Bray","label":"wounded: 3","datetime":"1916-03-05T00:00:00Z"}},{"type":"Feature","geometry":{"type":"Point","coordinates":[2.78186,50.29301]},"properties":{"place":"Bray","label":"wounded: 3","datetime":"1916-03-05T00:00:00Z"}},{"type":"Feature","geometry":{"type":"Point","coordinates":[2.7558,49.98489]},"properties":{"place":"Bray","label":"wounded: 3","datetime":"1916-03-05T00:00:00Z"}},{"type":"Feature","geometry":{"type":"Point","coordinates":[2.82024,50.85485]},"properties":{"place":"In the trenches","label":"wounded: 2","datetime":"1916-03-05T00:00:00Z"}},{"type":"Feature","geometry":{"type":"Point","coordinates":[2.71847,49.94085]},"properties":{"place":"Bray","label":"killed: 3, wounded: 3","datetime":"1916-03-08T19:30:00Z"}},{"type":"Feature","geometry":{"type":"Point","coordinates":[2.43191,49.9099]},"properties":{"place":"Bray","label":"killed: 3, wounded: 3","datetime":"1916-03-08T19:30:00Z"}},{"type":"Feature","geometry":{"type":"Point","coordinates":[2.5094,49.93772]},"properties":{"place":"Bray","label":"killed: 3, wounded: 3","datetime":"1916-03-08T19:30:00Z"}},{"type":"Feature","geometry":{"type":"Point","coordinates":[2.78186,50.29301]},"properties":{"place":"Bray","label":"killed: 3, wounded: 3","datetime":"1916-03-08T19:30:00Z"}},{"type":"Feature","geometry":{"type":"Point","coordinates":[2.7558,49.98489]},"properties":{"place":"Bray","label":"killed: 3, wounded: 3","datetime":"1916-03-08T19:30:00Z"}},{"type":"Feature","geometry":{"type":"Point","coordinates":[2.71847,49.94085]},"properties":{"place":"Bray","label":"killed: 3, wounded: 3","datetime":"1916-03-09T00:00:00Z"}},{"type":"Feature","geometry":{"type":"Point","coordinates":[2.43191,49.9099]},"properties":{"place":"Bray","label":"killed: 3, wounded: 3","datetime":"1916-03-09T00:00:00Z"}},{"type":"Feature","geometry":{"type":"Point","coordinates":[2.5094,49.93772]},"properties":{"place":"Bray","label":"killed: 3, wounded: 3","datetime":"1916-03-09T00:00:00Z"}},{"type":"Feature","geometry":{"type":"Point","coordinates":[2.78186,50.29301]},"properties":{"place":"Bray","label":"killed: 3, wounded: 3","datetime":"1916-03-09T00:00:00Z"}},{"type":"Feature","geometry":{"type":"Point","coordinates":[2.7558,49.98489]},"properties":{"place":"Bray","label":"killed: 3, wounded: 3","datetime":"1916-03-09T00:00:00Z"}},{"type":"Feature","geometry":{"type":"Point","coordinates":[2.71847,49.94085]},"properties":{"place":"Bray","label":"wounded: 1","datetime":"1916-03-12T00:00:00Z"}},{"type":"Feature","geometry":{"type":"Point","coordinates":[2.43191,49.9099]},"properties":{"place":"Bray","label":"wounded: 1","datetime":"1916-03-12T00:00:00Z"}},{"type":"Feature","geometry":{"type":"Point","coordinates":[2.5094,49.93772]},"properties":{"place":"Bray","label":"wounded: 1","datetime":"1916-03-12T00:00:00Z"}},{"type":"Feature","geometry":{"type":"Point","coordinates":[2.78186,50.29301]},"properties":{"place":"Bray","label":"wounded: 1","datetime":"1916-03-12T00:00:00Z"}},{"type":"Feature","geometry":{"type":"Point","coordinates":[2.7558,49.98489]},"properties":{"place":"Bray","label":"wounded: 1","datetime":"1916-03-12T00:00:00Z"}},{"type":"Feature","geometry":{"type":"Point","coordinates":[2.71847,49.94085]},"properties":{"place":"Bray","label":"wounded: 3","datetime":"1916-03-12T00:00:00Z"}},{"type":"Feature","geometry":{"type":"Point","coordinates":[2.43191,49.9099]},"properties":{"place":"Bray","label":"wounded: 3","datetime":"1916-03-12T00:00:00Z"}},{"type":"Feature","geometry":{"type":"Point","coordinates":[2.5094,49.93772]},"properties":{"place":"Bray","label":"wounded: 3","datetime":"1916-03-12T00:00:00Z"}},{"type":"Feature","geometry":{"type":"Point","coordinates":[2.78186,50.29301]},"properties":{"place":"Bray","label":"wounded: 3","datetime":"1916-03-12T00:00:00Z"}},{"type":"Feature","geometry":{"type":"Point","coordinates":[2.7558,49.98489]},"properties":{"place":"Bray","label":"wounded: 3","datetime":"1916-03-12T00:00:00Z"}},{"type":"Feature","geometry":{"type":"Point","coordinates":[2.71847,49.94085]},"properties":{"place":"Bray","label":"wounded: 1","datetime":"1916-03-13T00:00:00Z"}},{"type":"Feature","geometry":{"type":"Point","coordinates":[2.43191,49.9099]},"properties":{"place":"Bray","label":"wounded: 1","datetime":"1916-03-13T00:00:00Z"}},{"type":"Feature","geometry":{"type":"Point","coordinates":[2.5094,49.93772]},"properties":{"place":"Bray","label":"wounded: 1","datetime":"1916-03-13T00:00:00Z"}},{"type":"Feature","geometry":{"type":"Point","coordinates":[2.78186,50.29301]},"properties":{"place":"Bray","label":"wounded: 1","datetime":"1916-03-13T00:00:00Z"}},{"type":"Feature","geometry":{"type":"Point","coordinates":[2.7558,49.98489]},"properties":{"place":"Bray","label":"wounded: 1","datetime":"1916-03-13T00:00:00Z"}},{"type":"Feature","geometry":{"type":"Point","coordinates":[2.71847,49.94085]},"properties":{"place":"Bray","label":"wounded: 1","datetime":"1916-03-13T00:00:00Z"}},{"type":"Feature","geometry":{"type":"Point","coordinates":[2.43191,49.9099]},"properties":{"place":"Bray","label":"wounded: 1","datetime":"1916-03-13T00:00:00Z"}},{"type":"Feature","geometry":{"type":"Point","coordinates":[2.5094,49.93772]},"properties":{"place":"Bray","label":"wounded: 1","datetime":"1916-03-13T00:00:00Z"}},{"type":"Feature","geometry":{"type":"Point","coordinates":[2.78186,50.29301]},"properties":{"place":"Bray","label":"wounded: 1","datetime":"1916-03-13T00:00:00Z"}},{"type":"Feature","geometry":{"type":"Point","coordinates":[2.7558,49.98489]},"properties":{"place":"Bray","label":"wounded: 1","datetime":"1916-03-13T00:00:00Z"}},{"type":"Feature","geometry":{"type":"Point","coordinates":[2.71847,49.94085]},"properties":{"place":"Bray","label":"wounded: 1","datetime":"1916-03-13T00:00:00Z"}},{"type":"Feature","geometry":{"type":"Point","coordinates":[2.43191,49.9099]},"properties":{"place":"Bray","label":"wounded: 1","datetime":"1916-03-13T00:00:00Z"}},{"type":"Feature","geometry":{"type":"Point","coordinates":[2.5094,49.93772]},"properties":{"place":"Bray","label":"wounded: 1","datetime":"1916-03-13T00:00:00Z"}},{"type":"Feature","geometry":{"type":"Point","coordinates":[2.78186,50.29301]},"properties":{"place":"Bray","label":"wounded: 1","datetime":"1916-03-13T00:00:00Z"}},{"type":"Feature","geometry":{"type":"Point","coordinates":[2.7558,49.98489]},"properties":{"place":"Bray","label":"wounded: 1","datetime":"1916-03-13T00:00:00Z"}},{"type":"Feature","geometry":{"type":"Point","coordinates":[2.82024,50.85485]},"properties":{"place":"In the trenches","label":"wounded: 2","datetime":"1916-03-16T00:00:00Z"}},{"type":"Feature","geometry":{"type":"Point","coordinates":[2.82024,50.85485]},"properties":{"place":"In the trenches","label":"died: 1","datetime":"1916-03-17T00:00:00Z"}},{"type":"Feature","geometry":{"type":"Point","coordinates":[2.82024,50.85485]},"properties":{"place":"In the trenches","label":"casualties: 0","datetime":"1916-03-17T00:00:00Z"}},{"type":"Feature","geometry":{"type":"Point","coordinates":[2.71847,49.94085]},"properties":{"place":"Bray","label":"wounded: 1","datetime":"1916-03-19T00:00:00Z"}},{"type":"Feature","geometry":{"type":"Point","coordinates":[2.43191,49.9099]},"properties":{"place":"Bray","label":"wounded: 1","datetime":"1916-03-19T00:00:00Z"}},{"type":"Feature","geometry":{"type":"Point","coordinates":[2.5094,49.93772]},"properties":{"place":"Bray","label":"wounded: 1","datetime":"1916-03-19T00:00:00Z"}},{"type":"Feature","geometry":{"type":"Point","coordinates":[2.78186,50.29301]},"properties":{"place":"Bray","label":"wounded: 1","datetime":"1916-03-19T00:00:00Z"}},{"type":"Feature","geometry":{"type":"Point","coordinates":[2.7558,49.98489]},"properties":{"place":"Bray","label":"wounded: 1","datetime":"1916-03-19T00:00:00Z"}},{"type":"Feature","geometry":{"type":"Point","coordinates":[2.82024,50.85485]},"properties":{"place":"In the trenches","label":"wounded: 3","datetime":"1916-03-23T00:00:00Z"}},{"type":"Feature","geometry":{"type":"Point","coordinates":[2.82024,50.85485]},"properties":{"place":"In the trenches","label":"killed: 1, wounded: 1","datetime":"1916-03-25T00:00:00Z"}},{"type":"Feature","geometry":{"type":"Point","coordinates":[2.82024,50.85485]},"properties":{"place":"In the trenches","label":"wounded: 1","datetime":"1916-03-25T00:00:00Z"}},{"type":"Feature","geometry":{"type":"Point","coordinates":[2.82024,50.85485]},"properties":{"place":"In the trenches","label":"killed: 1, wounded: 1","datetime":"1916-03-25T00:00:00Z"}},{"type":"Feature","geometry":{"type":"Point","coordinates":[2.82024,50.85485]},"properties":{"place":"In the trenches","label":"wounded: 1","datetime":"1916-03-26T00:00:00Z"}},{"type":"Feature","geometry":{"type":"Point","coordinates":[2.71847,49.94085]},"properties":{"place":"Bray","label":"wounded: 1","datetime":"1916-04-05T00:00:00Z"}},{"type":"Feature","geometry":{"type":"Point","coordinates":[2.43191,49.9099]},"properties":{"place":"Bray","label":"wounded: 1","datetime":"1916-04-05T00:00:00Z"}},{"type":"Feature","geometry":{"type":"Point","coordinates":[2.5094,49.93772]},"properties":{"place":"Bray","label":"wounded: 1","datetime":"1916-04-05T00:00:00Z"}},{"type":"Feature","geometry":{"type":"Point","coordinates":[2.78186,50.29301]},"properties":{"place":"Bray","label":"wounded: 1","datetime":"1916-04-05T00:00:00Z"}},{"type":"Feature","geometry":{"type":"Point","coordinates":[2.7558,49.98489]},"properties":{"place":"Bray","label":"wounded: 1","datetime":"1916-04-05T00:00:00Z"}},{"type":"Feature","geometry":{"type":"Point","coordinates":[2.71847,49.94085]},"properties":{"place":"Bray","label":"wounded: 3","datetime":"1916-04-07T00:00:00Z"}},{"type":"Feature","geometry":{"type":"Point","coordinates":[2.43191,49.9099]},"properties":{"place":"Bray","label":"wounded: 3","datetime":"1916-04-07T00:00:00Z"}},{"type":"Feature","geometry":{"type":"Point","coordinates":[2.5094,49.93772]},"properties":{"place":"Bray","label":"wounded: 3","datetime":"1916-04-07T00:00:00Z"}},{"type":"Feature","geometry":{"type":"Point","coordinates":[2.78186,50.29301]},"properties":{"place":"Bray","label":"wounded: 3","datetime":"1916-04-07T00:00:00Z"}},{"type":"Feature","geometry":{"type":"Point","coordinates":[2.7558,49.98489]},"properties":{"place":"Bray","label":"wounded: 3","datetime":"1916-04-07T00:00:00Z"}},{"type":"Feature","geometry":{"type":"Point","coordinates":[2.71847,49.94085]},"properties":{"place":"Bray","label":"killed: 1","datetime":"1916-04-08T00:00:00Z"}},{"type":"Feature","geometry":{"type":"Point","coordinates":[2.43191,49.9099]},"properties":{"place":"Bray","label":"killed: 1","datetime":"1916-04-08T00:00:00Z"}},{"type":"Feature","geometry":{"type":"Point","coordinates":[2.5094,49.93772]},"properties":{"place":"Bray","label":"killed: 1","datetime":"1916-04-08T00:00:00Z"}},{"type":"Feature","geometry":{"type":"Point","coordinates":[2.78186,50.29301]},"properties":{"place":"Bray","label":"killed: 1","datetime":"1916-04-08T00:00:00Z"}},{"type":"Feature","geometry":{"type":"Point","coordinates":[2.7558,49.98489]},"properties":{"place":"Bray","label":"killed: 1","datetime":"1916-04-08T00:00:00Z"}},{"type":"Feature","geometry":{"type":"Point","coordinates":[2.71847,49.94085]},"properties":{"place":"Bray","label":"wounded: 1","datetime":"1916-04-10T00:00:00Z"}},{"type":"Feature","geometry":{"type":"Point","coordinates":[2.43191,49.9099]},"properties":{"place":"Bray","label":"wounded: 1","datetime":"1916-04-10T00:00:00Z"}},{"type":"Feature","geometry":{"type":"Point","coordinates":[2.5094,49.93772]},"properties":{"place":"Bray","label":"wounded: 1","datetime":"1916-04-10T00:00:00Z"}},{"type":"Feature","geometry":{"type":"Point","coordinates":[2.78186,50.29301]},"properties":{"place":"Bray","label":"wounded: 1","datetime":"1916-04-10T00:00:00Z"}},{"type":"Feature","geometry":{"type":"Point","coordinates":[2.7558,49.98489]},"properties":{"place":"Bray","label":"wounded: 1","datetime":"1916-04-10T00:00:00Z"}},{"type":"Feature","geometry":{"type":"Point","coordinates":[2.71847,49.94085]},"properties":{"place":"Bray","label":"wounded: 1","datetime":"1916-04-28T23:00:00Z"}},{"type":"Feature","geometry":{"type":"Point","coordinates":[2.43191,49.9099]},"properties":{"place":"Bray","label":"wounded: 1","datetime":"1916-04-28T23:00:00Z"}},{"type":"Feature","geometry":{"type":"Point","coordinates":[2.5094,49.93772]},