{"type":"FeatureCollection","features":[{"type":"Feature","geometry":{"type":"Point","coordinates":[1.69928,50.56067]},"properties":{"type":"place","label":"Frencq","datetime":"1915-04-01T00:00:00Z","marker-color":"#00607d","marker-symbol":"circle","marker-size":"medium"}},{"type":"Feature","geometry":{"type":"Point","coordinates":[2.92249,50.83464]},"properties":{"type":"place","label":"Fletre","datetime":"1915-04-01T00:00:00Z","marker-color":"#00607d","marker-symbol":"circle","marker-size":"medium"}},{"type":"Feature","geometry":{"type":"Point","coordinates":[2.69506,50.78305]},"properties":{"type":"place","label":"Berthen","datetime":"1915-04-01T00:00:00Z","marker-color":"#00607d","marker-symbol":"circle","marker-size":"medium"}},{"type":"Feature","geometry":{"type":"Point","coordinates":[2.7,50.73333]},"properties":{"type":"place","label":"Meteren","datetime":"1915-04-01T00:00:00Z","marker-color":"#00607d","marker-symbol":"circle","marker-size":"medium"}},{"type":"Feature","geometry":{"type":"Point","coordinates":[2.64444,50.69489]},"properties":{"type":"place","label":"Vieux Berquin","datetime":"1915-04-01T00:00:00Z","marker-color":"#00607d","marker-symbol":"circle","marker-size":"medium"}},{"type":"Feature","geometry":{"type":"Point","coordinates":[7.0845,51.17343]},"properties":{"type":"place","label":"Haan","datetime":"1915-04-01T00:00:00Z","marker-color":"#00607d","marker-symbol":"circle","marker-size":"medium"}},{"type":"Feature","geometry":{"type":"Point","coordinates":[2.52085,50.75646]},"properties":{"type":"place","label":"Hondeghem","datetime":"1915-04-01T00:00:00Z","marker-color":"#00607d","marker-symbol":"circle","marker-size":"medium"}},{"type":"Feature","geometry":{"type":"Point","coordinates":[2.64125,50.64329]},"properties":{"type":"place","label":"Merville","datetime":"1915-04-01T00:00:00Z","marker-color":"#00607d","marker-symbol":"circle","marker-size":"medium"}},{"type":"Feature","geometry":{"type":"Point","coordinates":[2.58482,50.7311]},"properties":{"type":"place","label":"Borre","datetime":"1915-04-01T11:15:00Z","marker-color":"#00607d","marker-symbol":"circle","marker-size":"medium"}},{"type":"Feature","geometry":{"type":"Point","coordinates":[2.58482,50.7311]},"properties":{"type":"place","label":"BORRE, Borre","datetime":"1915-04-01T00:00:00Z","marker-color":"#00607d","marker-symbol":"circle","marker-size":"medium"}},{"type":"Feature","geometry":{"type":"Point","coordinates":[2.64444,50.69489]},"properties":{"type":"place","label":"Vieux Berquin","datetime":"1915-04-01T00:00:00Z","marker-color":"#00607d","marker-symbol":"circle","marker-size":"medium"}},{"type":"Feature","geometry":{"type":"Point","coordinates":[2.72782,50.64574]},"properties":{"type":"place","label":"Caudescure","datetime":"1915-04-01T00:00:00Z","marker-color":"#00607d","marker-symbol":"circle","marker-size":"medium"}},{"type":"Feature","geometry":{"type":"Point","coordinates":[2.72782,50.64574]},"properties":{"type":"place","label":"Caudescure","datetime":"1915-04-01T00:00:00Z","marker-color":"#00607d","marker-symbol":"circle","marker-size":"medium"}},{"type":"Feature","geometry":{"type":"Point","coordinates":[2.53729,50.72374]},"properties":{"type":"place","label":"Hazebrouck","datetime":"1915-04-01T00:00:00Z","marker-color":"#00607d","marker-symbol":"circle","marker-size":"medium"}},{"type":"Feature","geometry":{"type":"Point","coordinates":[2.40321,50.6911]},"properties":{"type":"place","label":"Blaringhem","datetime":"1915-04-01T00:00:00Z","marker-color":"#00607d","marker-symbol":"circle","marker-size":"medium"}},{"type":"Feature","geometry":{"type":"Point","coordinates":[2.51787,50.69365]},"properties":{"type":"place","label":"Morbecque","datetime":"1915-04-01T14:30:00Z","marker-color":"#00607d","marker-symbol":"circle","marker-size":"medium"}},{"type":"Feature","geometry":{"type":"Point","coordinates":[2.51787,50.69365]},"properties":{"type":"place","label":"Steenbecque","datetime":"1915-04-01T10:30:00Z","marker-color":"#00607d","marker-symbol":"circle","marker-size":"medium"}},{"type":"Feature","geometry":{"type":"Point","coordinates":[2.40321,50.6911]},"properties":{"type":"place","label":"Blaringhem","datetime":"1915-04-01T00:00:00Z","marker-color":"#00607d","marker-symbol":"circle","marker-size":"medium"}},{"type":"Feature","geometry":{"type":"Point","coordinates":[2.48442,50.67421]},"properties":{"type":"place","label":"Hazebrouck","datetime":"1915-04-01T00:00:00Z","marker-color":"#00607d","marker-symbol":"circle","marker-size":"medium"}},{"type":"Feature","geometry":{"type":"Point","coordinates":[2.48442,50.67421]},"properties":{"type":"place","label":"Steenbecque","datetime":"1915-04-01T00:00:00Z","marker-color":"#00607d","marker-symbol":"circle","marker-size":"medium"}},{"type":"Feature","geometry":{"type":"Point","coordinates":[2.40983,50.7322]},"properties":{"type":"place","label":"Ebblinghem","datetime":"1915-04-01T00:00:00Z","marker-color":"#00607d","marker-symbol":"circle","marker-size":"medium"}},{"type":"Feature","geometry":{"type":"Point","coordinates":[2.45615,50.70712]},"properties":{"type":"place","label":"Sercus","datetime":"1915-04-01T00:00:00Z","marker-color":"#00607d","marker-symbol":"circle","marker-size":"medium"}},{"type":"Feature","geometry":{"type":"Point","coordinates":[2.40321,50.6911]},"properties":{"type":"place","label":"Blaringhem","datetime":"1915-04-01T00:00:00Z","marker-color":"#00607d","marker-symbol":"circle","marker-size":"medium"}},{"type":"Feature","geometry":{"type":"Point","coordinates":[2.78196,50.58582]},"properties":{"type":"place","label":"Ecole Paulbert, ECOLE PAUL BERT","datetime":"1915-04-01T00:00:00Z","marker-color":"#00607d","marker-symbol":"circle","marker-size":"medium"}},{"type":"Feature","geometry":{"type":"Point","coordinates":[2.63333,50.53333]},"properties":{"type":"place","label":"Bethune","datetime":"1915-04-01T00:00:00Z","marker-color":"#00607d","marker-symbol":"circle","marker-size":"medium"}},{"type":"Feature","geometry":{"type":"Point","coordinates":[2.63333,50.53333]},"properties":{"type":"place","label":"Long Cornet","datetime":"1915-04-01T00:00:00Z","marker-color":"#00607d","marker-symbol":"circle","marker-size":"medium"}},{"type":"Feature","geometry":{"type":"Point","coordinates":[2.63333,50.53333]},"properties":{"type":"place","label":"Bethune","datetime":"1915-04-01T00:00:00Z","marker-color":"#00607d","marker-symbol":"circle","marker-size":"medium"}},{"type":"Feature","geometry":{"type":"Point","coordinates":[2.63333,50.53333]},"properties":{"type":"place","label":"Les Choquaux","datetime":"1915-04-01T00:00:00Z","marker-color":"#00607d","marker-symbol":"circle","marker-size":"medium"}},{"type":"Feature","geometry":{"type":"Point","coordinates":[2.78196,50.58582]},"properties":{"type":"place","label":"Neuve Chapelle","datetime":"1915-04-01T00:00:00Z","marker-color":"#00607d","marker-symbol":"circle","marker-size":"medium"}},{"type":"Feature","geometry":{"type":"Point","coordinates":[2.63333,50.53333]},"properties":{"type":"place","label":"Bethune","datetime":"1915-04-01T00:00:00Z","marker-color":"#00607d","marker-symbol":"circle","marker-size":"medium"}},{"type":"Feature","geometry":{"type":"Point","coordinates":[2.63333,50.53333]},"properties":{"type":"place","label":"Bethune","datetime":"1915-04-01T00:00:00Z","marker-color":"#00607d","marker-symbol":"circle","marker-size":"medium"}},{"type":"Feature","geometry":{"type":"Point","coordinates":[2.63333,50.53333]},"properties":{"type":"place","label":"Bethune","datetime":"1915-04-01T00:00:00Z","marker-color":"#00607d","marker-symbol":"circle","marker-size":"medium"}},{"type":"Feature","geometry":{"type":"Point","coordinates":[4.16667,50.35]},"properties":{"type":"place","label":"Marais","datetime":"1915-04-01T00:00:00Z","marker-color":"#00607d","marker-symbol":"circle","marker-size":"medium"}},{"type":"Feature","geometry":{"type":"Point","coordinates":[2.7488,50.5175]},"properties":{"type":"place","label":"Cuinchy","datetime":"1915-04-01T00:00:00Z","marker-color":"#00607d","marker-symbol":"circle","marker-size":"medium"}},{"type":"Feature","geometry":{"type":"Point","coordinates":[2.7488,50.5175]},"properties":{"type":"place","label":"Annequin","datetime":"1915-04-01T00:00:00Z","marker-color":"#00607d","marker-symbol":"circle","marker-size":"medium"}},{"type":"Feature","geometry":{"type":"Point","coordinates":[2.7488,50.5175]},"properties":{"type":"place","label":"Cuinchy-Cambrin Road","datetime":"1915-04-01T05:00:00Z","marker-color":"#00607d","marker-symbol":"circle","marker-size":"medium"}},{"type":"Feature","geometry":{"type":"Point","coordinates":[2.7488,50.5175]},"properties":{"type":"place","label":"Marylebone Road","datetime":"1915-04-01T05:00:00Z","marker-color":"#00607d","marker-symbol":"circle","marker-size":"medium"}},{"type":"Feature","geometry":{"type":"Point","coordinates":[2.7488,50.5175]},"properties":{"type":"place","label":"Annequin","datetime":"1915-04-01T09:00:00Z","marker-color":"#00607d","marker-symbol":"circle","marker-size":"medium"}},{"type":"Feature","geometry":{"type":"Point","coordinates":[2.7488,50.5175]},"properties":{"type":"place","label":"Machine Gun house, Machine Gun House","datetime":"1915-04-01T09:00:00Z","marker-color":"#00607d","marker-symbol":"circle","marker-size":"medium"}},{"type":"Feature","geometry":{"type":"Point","coordinates":[2.7488,50.5175]},"properties":{"type":"place","label":"Seymour Street","datetime":"1915-04-01T09:00:00Z","marker-color":"#00607d","marker-symbol":"circle","marker-size":"medium"}},{"type":"Feature","geometry":{"type":"Point","coordinates":[2.87409,50.64985]},"properties":{"type":"place","label":"Bois Grenier","datetime":"1915-04-01T00:00:00Z","marker-color":"#00607d","marker-symbol":"circle","marker-size":"medium"}},{"type":"Feature","geometry":{"type":"Point","coordinates":[2.87409,50.64985]},"properties":{"type":"place","label":"Gris-Pot","datetime":"1915-04-01T00:00:00Z","marker-color":"#00607d","marker-symbol":"circle","marker-size":"medium"}},{"type":"Feature","geometry":{"type":"Point","coordinates":[2.87409,50.64985]},"properties":{"type":"place","label":"L'Armee","datetime":"1915-04-01T00:00:00Z","marker-color":"#00607d","marker-symbol":"circle","marker-size":"medium"}},{"type":"Feature","geometry":{"type":"Point","coordinates":[2.87409,50.64985]},"properties":{"type":"place","label":"Gris-Pot","datetime":"1915-04-01T00:00:00Z","marker-color":"#00607d","marker-symbol":"circle","marker-size":"medium"}},{"type":"Feature","geometry":{"type":"Point","coordinates":[2.91518,50.69499]},"properties":{"type":"place","label":"Erquinghem-Lys","datetime":"1915-04-01T00:00:00Z","marker-color":"#00607d","marker-symbol":"circle","marker-size":"medium"}},{"type":"Feature","geometry":{"type":"Point","coordinates":[2.91518,50.69499]},"properties":{"type":"place","label":"Rue Du Bois","datetime":"1915-04-01T00:00:00Z","marker-color":"#00607d","marker-symbol":"circle","marker-size":"medium"}},{"type":"Feature","geometry":{"type":"Point","coordinates":[2.91518,50.69499]},"properties":{"type":"place","label":"Touquet","datetime":"1915-04-01T00:00:00Z","marker-color":"#00607d","marker-symbol":"circle","marker-size":"medium"}},{"type":"Feature","geometry":{"type":"Point","coordinates":[3.41545,50.90911]},"properties":{"type":"place","label":"St Eloi","datetime":"1915-04-01T00:00:00Z","marker-color":"#00607d","marker-symbol":"circle","marker-size":"medium"}},{"type":"Feature","geometry":{"type":"Point","coordinates":[3.41545,50.90911]},"properties":{"type":"place","label":"Sint-Eloois-Vijve","datetime":"1915-04-01T00:00:00Z","marker-color":"#00607d","marker-symbol":"circle","marker-size":"medium"}},{"type":"Feature","geometry":{"type":"Point","coordinates":[2.85,50.81667]},"properties":{"type":"place","label":"Elzenwal","datetime":"1915-04-01T00:00:00Z","marker-color":"#00607d","marker-symbol":"circle","marker-size":"medium"}},{"type":"Feature","geometry":{"type":"Point","coordinates":[2.82873,50.82131]},"properties":{"type":"place","label":"Dikkebus","datetime":"1915-04-01T00:00:00Z","marker-color":"#00607d","marker-symbol":"circle","marker-size":"medium"}},{"type":"Feature","geometry":{"type":"Point","coordinates":[2.82873,50.82131]},"properties":{"type":"place","label":"Dikkebus","datetime":"1915-04-01T00:00:00Z","marker-color":"#00607d","marker-symbol":"circle","marker-size":"medium"}},{"type":"Feature","geometry":{"type":"Point","coordinates":[2.74647,50.79722]},"properties":{"type":"place","label":"Kemmel","datetime":"1915-04-01T04:30:00Z","marker-color":"#00607d","marker-symbol":"circle","marker-size":"medium"}},{"type":"Feature","geometry":{"type":"Point","coordinates":[2.74647,50.79722]},"properties":{"type":"place","label":"Vierstraat","datetime":"1915-04-01T04:30:00Z","marker-color":"#00607d","marker-symbol":"circle","marker-size":"medium"}},{"type":"Feature","geometry":{"type":"Point","coordinates":[2.88569,50.85114]},"properties":{"type":"place","label":"Ypres","datetime":"1915-04-01T00:00:00Z","marker-color":"#00607d","marker-symbol":"circle","marker-size":"medium"}},{"type":"Feature","geometry":{"type":"Point","coordinates":[2.25,50.75]},"properties":{"type":"place","label":"Saint Omer, St Omer","datetime":"1915-04-01T00:00:00Z","marker-color":"#00607d","marker-symbol":"circle","marker-size":"medium"}},{"type":"Feature","geometry":{"type":"Point","coordinates":[2.78226,50.8243]},"properties":{"type":"place","label":"Ouderdom","datetime":"1915-04-01T00:00:00Z","marker-color":"#00607d","marker-symbol":"circle","marker-size":"medium"}},{"type":"Feature","geometry":{"type":"Point","coordinates":[2.88569,50.85114]},"properties":{"type":"place","label":"Ypres","datetime":"1915-04-01T00:00:00Z","marker-color":"#00607d","marker-symbol":"circle","marker-size":"medium"}},{"type":"Feature","geometry":{"type":"Point","coordinates":[2.88214,50.68568]},"properties":{"type":"place","label":"Wez Macquart, wez macquart, Wezmarquart, Wez MacQuart, Wel Macquart","datetime":"1915-04-01T00:00:00Z","marker-color":"#00607d","marker-symbol":"circle","marker-size":"medium"}},{"type":"Feature","geometry":{"type":"Point","coordinates":[2.88214,50.68568]},"properties":{"type":"place","label":"Armentieres","datetime":"1915-04-01T00:00:00Z","marker-color":"#00607d","marker-symbol":"circle","marker-size":"medium"}},{"type":"Feature","geometry":{"type":"Point","coordinates":[2.88214,50.68568]},"properties":{"type":"place","label":"Armentieres","datetime":"1915-04-01T00:00:00Z","marker-color":"#00607d","marker-symbol":"circle","marker-size":"medium"}},{"type":"Feature","geometry":{"type":"Point","coordinates":[2.88214,50.68568]},"properties":{"type":"place","label":"Lille Post","datetime":"1915-04-01T18:30:00Z","marker-color":"#00607d","marker-symbol":"circle","marker-size":"medium"}},{"type":"Feature","geometry":{"type":"Point","coordinates":[2.88214,50.68568]},"properties":{"type":"place","label":"Contembu, contem","datetime":"1915-04-01T18:30:00Z","marker-color":"#00607d","marker-symbol":"circle","marker-size":"medium"}},{"type":"Feature","geometry":{"type":"Point","coordinates":[2.83506,50.70425]},"properties":{"type":"place","label":"Chapel D'Armentierel, Chapel D'Arhentieres","datetime":"1915-04-01T00:00:00Z","marker-color":"#00607d","marker-symbol":"circle","marker-size":"medium"}},{"type":"Feature","geometry":{"type":"Point","coordinates":[2.91518,50.69499]},"properties":{"type":"place","label":"Houplines","datetime":"1915-04-01T00:00:00Z","marker-color":"#00607d","marker-symbol":"circle","marker-size":"medium"}},{"type":"Feature","geometry":{"type":"Point","coordinates":[2.91518,50.69499]},"properties":{"type":"place","label":"Houplines","datetime":"1915-04-01T00:00:00Z","marker-color":"#00607d","marker-symbol":"circle","marker-size":"medium"}},{"type":"Feature","geometry":{"type":"Point","coordinates":[2.64125,50.64329]},"properties":{"type":"place","label":"Merville","datetime":"1915-04-01T00:00:00Z","marker-color":"#00607d","marker-symbol":"circle","marker-size":"medium"}},{"type":"Feature","geometry":{"type":"Point","coordinates":[2.64125,50.64329]},"properties":{"type":"place","label":"Merville","datetime":"1915-04-01T00:00:00Z","marker-color":"#00607d","marker-symbol":"circle","marker-size":"medium"}},{"type":"Feature","geometry":{"type":"Point","coordinates":[2.77076,50.62818]},"properties":{"type":"place","label":"Fauquissart","datetime":"1915-04-01T00:00:00Z","marker-color":"#00607d","marker-symbol":"circle","marker-size":"medium"}},{"type":"Feature","geometry":{"type":"Point","coordinates":[2.40942,50.8322]},"properties":{"type":"place","label":"Arneke","datetime":"1915-08-01T00:00:00Z","marker-color":"#00607d","marker-symbol":"circle","marker-size":"medium"}},{"type":"Feature","geometry":{"type":"Point","coordinates":[2.46901,50.88129]},"properties":{"type":"place","label":"Wisques","datetime":"1915-08-01T00:00:00Z","marker-color":"#00607d","marker-symbol":"circle","marker-size":"medium"}},{"type":"Feature","geometry":{"type":"Point","coordinates":[2.46901,50.88129]},"properties":{"type":"place","label":"ZEGGERS CAPPEL, Zeggers Cappel","datetime":"1915-08-01T00:00:00Z","marker-color":"#00607d","marker-symbol":"circle","marker-size":"medium"}},{"type":"Feature","geometry":{"type":"Point","coordinates":[2.46901,50.88129]},"properties":{"type":"place","label":"L'ERKELSBRUGGE","datetime":"1915-08-01T00:00:00Z","marker-color":"#00607d","marker-symbol":"circle","marker-size":"medium"}},{"type":"Feature","geometry":{"type":"Point","coordinates":[2.35652,50.83902]},"properties":{"type":"place","label":"Rubrouck","datetime":"1915-08-01T00:00:00Z","marker-color":"#00607d","marker-symbol":"circle","marker-size":"medium"}},{"type":"Feature","geometry":{"type":"Point","coordinates":[2.82024,50.85485]},"properties":{"type":"place","label":"Vlamertinghe","datetime":"1915-08-01T00:00:00Z","marker-color":"#00607d","marker-symbol":"circle","marker-size":"medium"}},{"type":"Feature","geometry":{"type":"Point","coordinates":[2.8171,50.88476]},"properties":{"type":"place","label":"Elverdinghe","datetime":"1915-08-01T00:00:00Z","marker-color":"#00607d","marker-symbol":"circle","marker-size":"medium"}},{"type":"Feature","geometry":{"type":"Point","coordinates":[2.44178,50.85576]},"properties":{"type":"place","label":"Ledringhem","datetime":"1915-08-01T00:00:00Z","marker-color":"#00607d","marker-symbol":"circle","marker-size":"medium"}},{"type":"Feature","geometry":{"type":"Point","coordinates":[2.40983,50.7322]},"properties":{"type":"place","label":"Ebblinghem","datetime":"1915-08-01T00:00:00Z","marker-color":"#00607d","marker-symbol":"circle","marker-size":"medium"}},{"type":"Feature","geometry":{"type":"Point","coordinates":[2.48527,50.80109]},"properties":{"type":"place","label":"Cassel","datetime":"1915-08-01T00:00:00Z","marker-color":"#00607d","marker-symbol":"circle","marker-size":"medium"}},{"type":"Feature","geometry":{"type":"Point","coordinates":[2.82024,50.85485]},"properties":{"type":"place","label":"Vlamertinghe, Vlamertinge","datetime":"1915-08-01T00:00:00Z","marker-color":"#00607d","marker-symbol":"circle","marker-size":"medium"}},{"type":"Feature","geometry":{"type":"Point","coordinates":[2.46901,50.88129]},"properties":{"type":"place","label":"Wormhoudt","datetime":"1915-08-01T05:45:00Z","marker-color":"#00607d","marker-symbol":"circle","marker-size":"medium"}},{"type":"Feature","geometry":{"type":"Point","coordinates":[2.30237,50.82029]},"properties":{"type":"place","label":"Lederzeele","datetime":"1915-08-01T10:00:00Z","marker-color":"#00607d","marker-symbol":"circle","marker-size":"medium"}},{"type":"Feature","geometry":{"type":"Point","coordinates":[2.45426,50.74907]},"properties":{"type":"place","label":"Staple","datetime":"1915-08-01T00:00:00Z","marker-color":"#00607d","marker-symbol":"circle","marker-size":"medium"}},{"type":"Feature","geometry":{"type":"Point","coordinates":[2.2999,50.77412]},"properties":{"type":"place","label":"Clairmarais","datetime":"1915-08-01T00:00:00Z","marker-color":"#00607d","marker-symbol":"circle","marker-size":"medium"}},{"type":"Feature","geometry":{"type":"Point","coordinates":[2.40321,50.6911]},"properties":{"type":"place","label":"Blaringhem","datetime":"1915-08-01T00:00:00Z","marker-color":"#00607d","marker-symbol":"circle","marker-size":"medium"}},{"type":"Feature","geometry":{"type":"Point","coordinates":[2.40321,50.6911]},"properties":{"type":"place","label":"Hazebrouck","datetime":"1915-08-01T00:00:00Z","marker-color":"#00607d","marker-symbol":"circle","marker-size":"medium"}},{"type":"Feature","geometry":{"type":"Point","coordinates":[2.48442,50.67421]},"properties":{"type":"place","label":"Steenbecque","datetime":"1915-08-01T09:45:00Z","marker-color":"#00607d","marker-symbol":"circle","marker-size":"medium"}},{"type":"Feature","geometry":{"type":"Point","coordinates":[2.48442,50.67421]},"properties":{"type":"place","label":"Elverdinghe","datetime":"1915-08-01T13:00:00Z","marker-color":"#00607d","marker-symbol":"circle","marker-size":"medium"}},{"type":"Feature","geometry":{"type":"Point","coordinates":[2.28601,50.71843]},"properties":{"type":"place","label":"Blendecques","datetime":"1915-08-01T18:30:00Z","marker-color":"#00607d","marker-symbol":"circle","marker-size":"medium"}},{"type":"Feature","geometry":{"type":"Point","coordinates":[2.46676,50.65147]},"properties":{"type":"place","label":"Thiennes","datetime":"1915-08-01T00:00:00Z","marker-color":"#00607d","marker-symbol":"circle","marker-size":"medium"}},{"type":"Feature","geometry":{"type":"Point","coordinates":[2.48442,50.67421]},"properties":{"type":"place","label":"Steenbecque","datetime":"1915-08-01T00:00:00Z","marker-color":"#00607d","marker-symbol":"circle","marker-size":"medium"}},{"type":"Feature","geometry":{"type":"Point","coordinates":[2.8171,50.88476]},"properties":{"type":"place","label":"Elverdinghe","datetime":"1915-08-01T00:00:00Z","marker-color":"#00607d","marker-symbol":"circle","marker-size":"medium"}},{"type":"Feature","geometry":{"type":"Point","coordinates":[2.8171,50.88476]},"properties":{"type":"place","label":"Quiestede","datetime":"1915-08-01T00:00:00Z","marker-color":"#00607d","marker-symbol":"circle","marker-size":"medium"}},{"type":"Feature","geometry":{"type":"Point","coordinates":[2.39141,50.66998]},"properties":{"type":"place","label":"Wittes","datetime":"1915-08-01T00:00:00Z","marker-color":"#00607d","marker-symbol":"circle","marker-size":"medium"}},{"type":"Feature","geometry":{"type":"Point","coordinates":[2.40321,50.6911]},"properties":{"type":"place","label":"Blaringhem","datetime":"1915-08-01T00:00:00Z","marker-color":"#00607d","marker-symbol":"circle","marker-size":"medium"}},{"type":"Feature","geometry":{"type":"Point","coordinates":[2.61785,50.53192]},"properties":{"type":"place","label":"Verquin","datetime":"1915-08-01T00:00:00Z","marker-color":"#00607d","marker-symbol":"circle","marker-size":"medium"}},{"type":"Feature","geometry":{"type":"Point","coordinates":[2.72628,50.49001]},"properties":{"type":"place","label":"Noyelles-les-Vermelles, Noyelles Les Vermelles, Noyelles-l\u00e8s-Vermelles","datetime":"1915-08-01T00:00:00Z","marker-color":"#00607d","marker-symbol":"circle","marker-size":"medium"}},{"type":"Feature","geometry":{"type":"Point","coordinates":[2.74082,50.5097]},"properties":{"type":"place","label":"Bradell Point","datetime":"1915-08-01T00:00:00Z","marker-color":"#00607d","marker-symbol":"circle","marker-size":"medium"}},{"type":"Feature","geometry":{"type":"Point","coordinates":[2.74082,50.5097]},"properties":{"type":"place","label":"Cuinchy","datetime":"1915-08-01T00:00:00Z","marker-color":"#00607d","marker-symbol":"circle","marker-size":"medium"}},{"type":"Feature","geometry":{"type":"Point","coordinates":[2.74082,50.5097]},"properties":{"type":"place","label":"Ikey Trench","datetime":"1915-08-01T00:00:00Z","marker-color":"#00607d","marker-symbol":"circle","marker-size":"medium"}},{"type":"Feature","geometry":{"type":"Point","coordinates":[2.74082,50.5097]},"properties":{"type":"place","label":"Cabbage Patch Redoubt","datetime":"1915-08-01T00:00:00Z","marker-color":"#00607d","marker-symbol":"circle","marker-size":"medium"}},{"type":"Feature","geometry":{"type":"Point","coordinates":[2.74082,50.5097]},"properties":{"type":"place","label":"Park Lane","datetime":"1915-08-01T00:00:00Z","marker-color":"#00607d","marker-symbol":"circle","marker-size":"medium"}},{"type":"Feature","geometry":{"type":"Point","coordinates":[2.76667,50.53333]},"properties":{"type":"place","label":"Givenchy","datetime":"1915-08-01T00:00:00Z","marker-color":"#00607d","marker-symbol":"circle","marker-size":"medium"}},{"type":"Feature","geometry":{"type":"Point","coordinates":[2.38097,50.10594]},"properties":{"type":"place","label":"Terramesnil","datetime":"1915-08-01T00:00:00Z","marker-color":"#00607d","marker-symbol":"circle","marker-size":"medium"}},{"type":"Feature","geometry":{"type":"Point","coordinates":[2.73054,49.17301]},"properties":{"type":"place","label":"Nouveau Monde, Nouvea Monde","datetime":"1915-08-01T00:00:00Z","marker-color":"#00607d","marker-symbol":"circle","marker-size":"medium"}},{"type":"Feature","geometry":{"type":"Point","coordinates":[2.77076,50.62818]},"properties":{"type":"place","label":"Laventie","datetime":"1915-08-01T00:00:00Z","marker-color":"#00607d","marker-symbol":"circle","marker-size":"medium"}},{"type":"Feature","geometry":{"type":"Point","coordinates":[2.77076,50.62818]},"properties":{"type":"place","label":"Laventie","datetime":"1915-08-01T00:00:00Z","marker-color":"#00607d","marker-symbol":"circle","marker-size":"medium"}},{"type":"Feature","geometry":{"type":"Point","coordinates":[2.77076,50.62818]},"properties":{"type":"place","label":"Laventie","datetime":"1915-08-01T00:00:00Z","marker-color":"#00607d","marker-symbol":"circle","marker-size":"medium"}},{"type":"Feature","geometry":{"type":"Point","coordinates":[3.16667,49.2]},"properties":{"type":"place","label":"Steenvoorde","datetime":"1915-08-01T00:00:00Z","marker-color":"#00607d","marker-symbol":"circle","marker-size":"medium"}},{"type":"Feature","geometry":{"type":"Point","coordinates":[2.75807,50.83826]},"properties":{"type":"place","label":"Busseboom","datetime":"1915-08-01T00:00:00Z","marker-color":"#00607d","marker-symbol":"circle","marker-size":"medium"}},{"type":"Feature","geometry":{"type":"Point","coordinates":[2.66667,50.81667]},"properties":{"type":"place","label":"St Eloi","datetime":"1915-08-01T00:00:00Z","marker-color":"#00607d","marker-symbol":"circle","marker-size":"medium"}},{"type":"Feature","geometry":{"type":"Point","coordinates":[2.02101,50.59109]},"properties":{"type":"place","label":"Beaussart","datetime":"1915-08-01T00:00:00Z","marker-color":"#00607d","marker-symbol":"circle","marker-size":"medium"}},{"type":"Feature","geometry":{"type":"Point","coordinates":[2.55828,50.09298]},"properties":{"type":"place","label":"Bertrancourt","datetime":"1915-08-01T00:00:00Z","marker-color":"#00607d","marker-symbol":"circle","marker-size":"medium"}},{"type":"Feature","geometry":{"type":"Point","coordinates":[2.65746,50.08429]},"properties":{"type":"place","label":"Beaumont Hamel, Beaumont-Hamel","datetime":"1915-08-01T00:00:00Z","marker-color":"#00607d","marker-symbol":"circle","marker-size":"medium"}},{"type":"Feature","geometry":{"type":"Point","coordinates":[2.8171,50.88476]},"properties":{"type":"place","label":"Mailley","datetime":"1915-08-01T00:00:00Z","marker-color":"#00607d","marker-symbol":"circle","marker-size":"medium"}},{"type":"Feature","geometry":{"type":"Point","coordinates":[2.64456,50.79399]},"properties":{"type":"place","label":"Godewaersvelde","datetime":"1915-08-01T00:00:00Z","marker-color":"#00607d","marker-symbol":"circle","marker-size":"medium"}},{"type":"Feature","geometry":{"type":"Point","coordinates":[2.7,50.8]},"properties":{"type":"place","label":"Boeschepe","datetime":"1915-08-01T06:53:00Z","marker-color":"#00607d","marker-symbol":"circle","marker-size":"medium"}},{"type":"Feature","geometry":{"type":"Point","coordinates":[1.85635,50.95194]},"properties":{"type":"place","label":"Calais","datetime":"1915-08-01T10:53:00Z","marker-color":"#00607d","marker-symbol":"circle","marker-size":"medium"}},{"type":"Feature","geometry":{"type":"Point","coordinates":[1.61667,50.71667]},"properties":{"type":"place","label":"Boulogne","datetime":"1915-08-01T10:53:00Z","marker-color":"#00607d","marker-symbol":"circle","marker-size":"medium"}},{"type":"Feature","geometry":{"type":"Point","coordinates":[1.85635,50.95194]},"properties":{"type":"place","label":"Calais","datetime":"1915-08-01T10:53:00Z","marker-color":"#00607d","marker-symbol":"circle","marker-size":"medium"}},{"type":"Feature","geometry":{"type":"Point","coordinates":[1.83189,50.14349]},"properties":{"type":"place","label":"Abbeville","datetime":"1915-08-01T14:00:00Z","marker-color":"#00607d","marker-symbol":"circle","marker-size":"medium"}},{"type":"Feature","geometry":{"type":"Point","coordinates":[2.50682,49.90672]},"properties":{"type":"place","label":"Corbie","datetime":"1915-08-01T14:00:00Z","marker-color":"#00607d","marker-symbol":"circle","marker-size":"medium"}},{"type":"Feature","geometry":{"type":"Point","coordinates":[2.78226,50.8243]},"properties":{"type":"place","label":"La Neuville","datetime":"1915-08-01T00:00:00Z","marker-color":"#00607d","marker-symbol":"circle","marker-size":"medium"}},{"type":"Feature","geometry":{"type":"Point","coordinates":[2.73594,50.73592]},"properties":{"type":"place","label":"Godewaervelde","datetime":"1915-08-01T00:00:00Z","marker-color":"#00607d","marker-symbol":"circle","marker-size":"medium"}},{"type":"Feature","geometry":{"type":"Point","coordinates":[2.73594,50.73592]},"properties":{"type":"place","label":"Calais","datetime":"1915-08-01T00:00:00Z","marker-color":"#00607d","marker-symbol":"circle","marker-size":"medium"}},{"type":"Feature","geometry":{"type":"Point","coordinates":[2.73594,50.73592]},"properties":{"type":"place","label":"Abbeville","datetime":"1915-08-01T00:30:00Z","marker-color":"#00607d","marker-symbol":"circle","marker-size":"medium"}},{"type":"Feature","geometry":{"type":"Point","coordinates":[2.73594,50.73592]},"properties":{"type":"place","label":"Corbie","datetime":"1915-08-01T00:30:00Z","marker-color":"#00607d","marker-symbol":"circle","marker-size":"medium"}},{"type":"Feature","geometry":{"type":"Point","coordinates":[2.73594,50.73592]},"properties":{"type":"place","label":"Vecquemont","datetime":"1915-08-01T00:30:00Z","marker-color":"#00607d","marker-symbol":"circle","marker-size":"medium"}},{"type":"Feature","geometry":{"type":"Point","coordinates":[2.64456,50.79399]},"properties":{"type":"place","label":"Corbie","datetime":"1915-08-01T00:00:00Z","marker-color":"#00607d","marker-symbol":"circle","marker-size":"medium"}},{"type":"Feature","geometry":{"type":"Point","coordinates":[2.64456,50.79399]},"properties":{"type":"place","label":"Daours","datetime":"1915-08-01T00:00:00Z","marker-color":"#00607d","marker-symbol":"circle","marker-size":"medium"}},{"type":"Feature","geometry":{"type":"Point","coordinates":[2.64456,50.79399]},"properties":{"type":"place","label":"Daours","datetime":"1915-08-01T00:00:00Z","marker-color":"#00607d","marker-symbol":"circle","marker-size":"medium"}},{"type":"Feature","geometry":{"type":"Point","coordinates":[2.48207,49.95175]},"properties":{"type":"place","label":"Morlancourt","datetime":"1915-08-01T00:00:00Z","marker-color":"#00607d","marker-symbol":"circle","marker-size":"medium"}},{"type":"Feature","geometry":{"type":"Point","coordinates":[0.10767,49.4938]},"properties":{"type":"place","label":"Havre","datetime":"1915-08-01T00:00:00Z","marker-color":"#00607d","marker-symbol":"circle","marker-size":"medium"}},{"type":"Feature","geometry":{"type":"Point","coordinates":[2.48207,49.95175]},"properties":{"type":"place","label":"Lahoussoye","datetime":"1915-08-01T00:00:00Z","marker-color":"#00607d","marker-symbol":"circle","marker-size":"medium"}},{"type":"Feature","geometry":{"type":"Point","coordinates":[1.94256,49.35492]},"properties":{"type":"place","label":"La Houssoye","datetime":"1915-08-01T00:00:00Z","marker-color":"#00607d","marker-symbol":"circle","marker-size":"medium"}},{"type":"Feature","geometry":{"type":"Point","coordinates":[2.6309,49.97272]},"properties":{"type":"place","label":"Dernancourt","datetime":"1915-08-01T00:00:00Z","marker-color":"#00607d","marker-symbol":"circle","marker-size":"medium"}},{"type":"Feature","geometry":{"type":"Point","coordinates":[2.88569,50.85114]},"properties":{"type":"place","label":"Ypres","datetime":"1915-08-01T00:00:00Z","marker-color":"#00607d","marker-symbol":"circle","marker-size":"medium"}},{"type":"Feature","geometry":{"type":"Point","coordinates":[2.88569,50.85114]},"properties":{"type":"place","label":"Ypres Road","datetime":"1915-08-01T00:00:00Z","marker-color":"#00607d","marker-symbol":"circle","marker-size":"medium"}},{"type":"Feature","geometry":{"type":"Point","coordinates":[2.88569,50.85114]},"properties":{"type":"place","label":"Ypres","datetime":"1915-08-01T00:00:00Z","marker-color":"#00607d","marker-symbol":"circle","marker-size":"medium"}},{"type":"Feature","geometry":{"type":"Point","coordinates":[2.91895,50.87138]},"properties":{"type":"place","label":"Wieltje","datetime":"1915-08-01T00:00:00Z","marker-color":"#00607d","marker-symbol":"circle","marker-size":"medium"}},{"type":"Feature","geometry":{"type":"Point","coordinates":[2.88569,50.85114]},"properties":{"type":"place","label":"Ypres","datetime":"1915-08-01T00:00:00Z","marker-color":"#00607d","marker-symbol":"circle","marker-size":"medium"}},{"type":"Feature","geometry":{"type":"Point","coordinates":[2.91288,50.86011]},"properties":{"type":"place","label":"Potijze","datetime":"1915-08-01T00:00:00Z","marker-color":"#00607d","marker-symbol":"circle","marker-size":"medium"}},{"type":"Feature","geometry":{"type":"Point","coordinates":[2.7071,50.58212]},"properties":{"type":"place","label":"La Couture","datetime":"1915-08-01T00:00:00Z","marker-color":"#00607d","marker-symbol":"circle","marker-size":"medium"}},{"type":"Feature","geometry":{"type":"Point","coordinates":[2.7071,50.58212]},"properties":{"type":"place","label":"Cense la Vallee","datetime":"1915-08-01T00:00:00Z","marker-color":"#00607d","marker-symbol":"circle","marker-size":"medium"}},{"type":"Feature","geometry":{"type":"Point","coordinates":[2.7071,50.58212]},"properties":{"type":"place","label":"Cense la Vallee","datetime":"1915-08-01T14:00:00Z","marker-color":"#00607d","marker-symbol":"circle","marker-size":"medium"}},{"type":"Feature","geometry":{"type":"Point","coordinates":[2.56262,50.59608]},"properties":{"type":"place","label":"Robecq","datetime":"1915-08-01T00:00:00Z","marker-color":"#00607d","marker-symbol":"circle","marker-size":"medium"}},{"type":"Feature","geometry":{"type":"Point","coordinates":[2.53293,50.55738]},"properties":{"type":"place","label":"Busnettes","datetime":"1915-08-01T00:00:00Z","marker-color":"#00607d","marker-symbol":"circle","marker-size":"medium"}},{"type":"Feature","geometry":{"type":"Point","coordinates":[2.51827,50.58781]},"properties":{"type":"place","label":"Busnes","datetime":"1915-08-01T00:00:00Z","marker-color":"#00607d","marker-symbol":"circle","marker-size":"medium"}},{"type":"Feature","geometry":{"type":"Point","coordinates":[2.41011,50.5817]},"properties":{"type":"place","label":"Cornet Bourdois, Cornet Bordois","datetime":"1915-08-01T09:15:00Z","marker-color":"#00607d","marker-symbol":"circle","marker-size":"medium"}},{"type":"Feature","geometry":{"type":"Point","coordinates":[2.66121,49.98167]},"properties":{"type":"place","label":"Montauban","datetime":"1915-08-01T00:00:00Z","marker-color":"#00607d","marker-symbol":"circle","marker-size":"medium"}},{"type":"Feature","geometry":{"type":"Point","coordinates":[2.66121,49.98167]},"properties":{"type":"place","label":"Bernafay Wood","datetime":"1915-08-01T00:00:00Z","marker-color":"#00607d","marker-symbol":"circle","marker-size":"medium"}},{"type":"Feature","geometry":{"type":"Point","coordinates":[1.74628,50.6384]},"properties":{"type":"place","label":"Neuville","datetime":"1915-12-01T00:00:00Z","marker-color":"#00607d","marker-symbol":"circle","marker-size":"medium"}},{"type":"Feature","geometry":{"type":"Point","coordinates":[2.02888,50.66212]},"properties":{"type":"place","label":"Vaudringhem","datetime":"1915-12-01T08:15:00Z","marker-color":"#00607d","marker-symbol":"circle","marker-size":"medium"}},{"type":"Feature","geometry":{"type":"Point","coordinates":[2.10745,50.6706]},"properties":{"type":"place","label":"Fourdebecques","datetime":"1915-12-01T08:15:00Z","marker-color":"#00607d","marker-symbol":"circle","marker-size":"medium"}},{"type":"Feature","geometry":{"type":"Point","coordinates":[2.10745,50.6706]},"properties":{"type":"place","label":"Fort Rouge","datetime":"1915-12-01T08:15:00Z","marker-color":"#00607d","marker-symbol":"circle","marker-size":"medium"}},{"type":"Feature","geometry":{"type":"Point","coordinates":[2.10745,50.6706]},"properties":{"type":"place","label":"Clairmarais, clairmarais","datetime":"1915-12-01T08:15:00Z","marker-color":"#00607d","marker-symbol":"circle","marker-size":"medium"}},{"type":"Feature","geometry":{"type":"Point","coordinates":[2.10745,50.6706]},"properties":{"type":"place","label":"Clairmarais Forest","datetime":"1915-12-01T08:15:00Z","marker-color":"#00607d","marker-symbol":"circle","marker-size":"medium"}},{"type":"Feature","geometry":{"type":"Point","coordinates":[1.82836,50.51801]},"properties":{"type":"place","label":"Alette","datetime":"1915-12-01T00:00:00Z","marker-color":"#00607d","marker-symbol":"circle","marker-size":"medium"}},{"type":"Feature","geometry":{"type":"Point","coordinates":[1.88032,50.57287]},"properties":{"type":"place","label":"Enquin","datetime":"1915-12-01T00:00:00Z","marker-color":"#00607d","marker-symbol":"circle","marker-size":"medium"}},{"type":"Feature","geometry":{"type":"Point","coordinates":[1.83478,50.66884]},"properties":{"type":"place","label":"Desvres","datetime":"1915-12-01T00:00:00Z","marker-color":"#00607d","marker-symbol":"circle","marker-size":"medium"}},{"type":"Feature","geometry":{"type":"Point","coordinates":[2.05869,50.62101]},"properties":{"type":"place","label":"Thiembronne","datetime":"1915-12-01T00:00:00Z","marker-color":"#00607d","marker-symbol":"circle","marker-size":"medium"}},{"type":"Feature","geometry":{"type":"Point","coordinates":[2.05869,50.62101]},"properties":{"type":"place","label":"Thiembronne","datetime":"1915-12-01T00:00:00Z","marker-color":"#00607d","marker-symbol":"circle","marker-size":"medium"}},{"type":"Feature","geometry":{"type":"Point","coordinates":[2.48895,50.61162]},"properties":{"type":"place","label":"guarbecque, GUARBECQUE, Guarbecque","datetime":"1915-12-01T00:00:00Z","marker-color":"#00607d","marker-symbol":"circle","marker-size":"medium"}},{"type":"Feature","geometry":{"type":"Point","coordinates":[1.9322,50.68416]},"properties":{"type":"place","label":"Lottinghem","datetime":"1915-12-01T00:00:00Z","marker-color":"#00607d","marker-symbol":"circle","marker-size":"medium"}},{"type":"Feature","geometry":{"type":"Point","coordinates":[1.9322,50.68416]},"properties":{"type":"place","label":"LOTTINGHEM, Lottinghen, LOTTINGHEN","datetime":"1915-12-01T00:00:00Z","marker-color":"#00607d","marker-symbol":"circle","marker-size":"medium"}},{"type":"Feature","geometry":{"type":"Point","coordinates":[1.84223,50.64628]},"properties":{"type":"place","label":"Courset","datetime":"1915-12-01T00:00:00Z","marker-color":"#00607d","marker-symbol":"circle","marker-size":"medium"}},{"type":"Feature","geometry":{"type":"Point","coordinates":[2.13292,50.51501]},"properties":{"type":"place","label":"Fruges","datetime":"1915-12-01T00:00:00Z","marker-color":"#00607d","marker-symbol":"circle","marker-size":"medium"}},{"type":"Feature","geometry":{"type":"Point","coordinates":[2.13292,50.51501]},"properties":{"type":"place","label":"coupelle, Coupelle","datetime":"1915-12-01T00:00:00Z","marker-color":"#00607d","marker-symbol":"circle","marker-size":"medium"}},{"type":"Feature","geometry":{"type":"Point","coordinates":[2.13292,50.51501]},"properties":{"type":"place","label":"Febuin-Palfart, Febvin Palfert","datetime":"1915-12-01T00:00:00Z","marker-color":"#00607d","marker-symbol":"circle","marker-size":"medium"}},{"type":"Feature","geometry":{"type":"Point","coordinates":[2.13292,50.51501]},"properties":{"type":"place","label":"Laires","datetime":"1915-12-01T00:00:00Z","marker-color":"#00607d","marker-symbol":"circle","marker-size":"medium"}},{"type":"Feature","geometry":{"type":"Point","coordinates":[1.98333,50.5]},"properties":{"type":"place","label":"Rimboval","datetime":"1915-12-01T00:00:00Z","marker-color":"#00607d","marker-symbol":"circle","marker-size":"medium"}},{"type":"Feature","geometry":{"type":"Point","coordinates":[2.13292,50.51501]},"properties":{"type":"place","label":"Assonval","datetime":"1915-12-01T00:00:00Z","marker-color":"#00607d","marker-symbol":"circle","marker-size":"medium"}},{"type":"Feature","geometry":{"type":"Point","coordinates":[1.89938,50.42432]},"properties":{"type":"place","label":"Maresquel","datetime":"1915-12-01T09:00:00Z","marker-color":"#00607d","marker-symbol":"circle","marker-size":"medium"}},{"type":"Feature","geometry":{"type":"Point","coordinates":[1.89938,50.42432]},"properties":{"type":"place","label":"Brimeux-Aix-Sempy","datetime":"1915-12-01T10:30:00Z","marker-color":"#00607d","marker-symbol":"circle","marker-size":"medium"}},{"type":"Feature","geometry":{"type":"Point","coordinates":[2.04359,50.46636]},"properties":{"type":"place","label":"Sains les Fressins","datetime":"1915-12-01T00:00:00Z","marker-color":"#00607d","marker-symbol":"circle","marker-size":"medium"}},{"type":"Feature","geometry":{"type":"Point","coordinates":[2.05507,50.49358]},"properties":{"type":"place","label":"Crequy","datetime":"1915-12-01T00:00:00Z","marker-color":"#00607d","marker-symbol":"circle","marker-size":"medium"}},{"type":"Feature","geometry":{"type":"Point","coordinates":[2.05507,50.49358]},"properties":{"type":"place","label":"Ouderdom","datetime":"1915-12-01T00:00:00Z","marker-color":"#00607d","marker-symbol":"circle","marker-size":"medium"}},{"type":"Feature","geometry":{"type":"Point","coordinates":[2.05507,50.49358]},"properties":{"type":"place","label":"Maresquel","datetime":"1915-12-01T00:00:00Z","marker-color":"#00607d","marker-symbol":"circle","marker-size":"medium"}},{"type":"Feature","geometry":{"type":"Point","coordinates":[2.05507,50.49358]},"properties":{"type":"place","label":"Hazebrouck","datetime":"1915-12-01T18:00:00Z","marker-color":"#00607d","marker-symbol":"circle","marker-size":"medium"}},{"type":"Feature","geometry":{"type":"Point","coordinates":[2.05507,50.49358]},"properties":{"type":"place","label":"St. Omer","datetime":"1915-12-01T18:00:00Z","marker-color":"#00607d","marker-symbol":"circle","marker-size":"medium"}},{"type":"Feature","geometry":{"type":"Point","coordinates":[2.05507,50.49358]},"properties":{"type":"place","label":"Calais","datetime":"1915-12-01T18:00:00Z","marker-color":"#00607d","marker-symbol":"circle","marker-size":"medium"}},{"type":"Feature","geometry":{"type":"Point","coordinates":[2.05507,50.49358]},"properties":{"type":"place","label":"Boulogne","datetime":"1915-12-01T18:00:00Z","marker-color":"#00607d","marker-symbol":"circle","marker-size":"medium"}},{"type":"Feature","geometry":{"type":"Point","coordinates":[2.05507,50.49358]},"properties":{"type":"place","label":"Etaples","datetime":"1915-12-01T18:00:00Z","marker-color":"#00607d","marker-symbol":"circle","marker-size":"medium"}},{"type":"Feature","geometry":{"type":"Point","coordinates":[2.05507,50.49358]},"properties":{"type":"place","label":"Paris, paris","datetime":"1915-12-01T18:00:00Z","marker-color":"#00607d","marker-symbol":"circle","marker-size":"medium"}},{"type":"Feature","geometry":{"type":"Point","coordinates":[1.94731,50.45507]},"properties":{"type":"place","label":"Hesmond","datetime":"1915-12-01T00:00:00Z","marker-color":"#00607d","marker-symbol":"circle","marker-size":"medium"}},{"type":"Feature","geometry":{"type":"Point","coordinates":[1.96284,50.57505]},"properties":{"type":"place","label":"Wicquinghem","datetime":"1915-12-01T00:00:00Z","marker-color":"#00607d","marker-symbol":"circle","marker-size":"medium"}},{"type":"Feature","geometry":{"type":"Point","coordinates":[1.96284,50.57505]},"properties":{"type":"place","label":"Wicquinghem","datetime":"1915-12-01T00:00:00Z","marker-color":"#00607d","marker-symbol":"circle","marker-size":"medium"}},{"type":"Feature","geometry":{"type":"Point","coordinates":[2.16501,50.54517]},"properties":{"type":"place","label":"Rimboval","datetime":"1915-12-01T00:00:00Z","marker-color":"#00607d","marker-symbol":"circle","marker-size":"medium"}},{"type":"Feature","geometry":{"type":"Point","coordinates":[1.96667,50.48333]},"properties":{"type":"place","label":"Embry","datetime":"1915-12-01T00:00:00Z","marker-color":"#00607d","marker-symbol":"circle","marker-size":"medium"}},{"type":"Feature","geometry":{"type":"Point","coordinates":[1.96667,50.48333]},"properties":{"type":"place","label":"St Denoeux, St. Denoex, St Deneux","datetime":"1915-12-01T00:00:00Z","marker-color":"#00607d","marker-symbol":"circle","marker-size":"medium"}},{"type":"Feature","geometry":{"type":"Point","coordinates":[2.57458,50.47519]},"properties":{"type":"place","label":"Haillicourt","datetime":"1915-12-01T00:00:00Z","marker-color":"#00607d","marker-symbol":"circle","marker-size":"medium"}},{"type":"Feature","geometry":{"type":"Point","coordinates":[2.57458,50.47519]},"properties":{"type":"place","label":"La Buisiere, Labusiere","datetime":"1915-12-01T00:00:00Z","marker-color":"#00607d","marker-symbol":"circle","marker-size":"medium"}},{"type":"Feature","geometry":{"type":"Point","coordinates":[2.42474,50.51853]},"properties":{"type":"place","label":"Rimbert Les Auchel, Rimbert-les-auchel","datetime":"1915-12-01T00:00:00Z","marker-color":"#00607d","marker-symbol":"circle","marker-size":"medium"}},{"type":"Feature","geometry":{"type":"Point","coordinates":[2.71544,50.4711]},"properties":{"type":"place","label":"Mazingarbe","datetime":"1915-12-01T13:30:00Z","marker-color":"#00607d","marker-symbol":"circle","marker-size":"medium"}},{"type":"Feature","geometry":{"type":"Point","coordinates":[2.71544,50.4711]},"properties":{"type":"place","label":"Mazingarbe","datetime":"1915-12-01T13:30:00Z","marker-color":"#00607d","marker-symbol":"circle","marker-size":"medium"}},{"type":"Feature","geometry":{"type":"Point","coordinates":[2.60024,50.51885]},"properties":{"type":"place","label":"Fouquereuil","datetime":"1915-12-01T00:00:00Z","marker-color":"#00607d","marker-symbol":"circle","marker-size":"medium"}},{"type":"Feature","geometry":{"type":"Point","coordinates":[2.7488,50.5175]},"properties":{"type":"place","label":"Cuinchy","datetime":"1915-12-01T00:00:00Z","marker-color":"#00607d","marker-symbol":"circle","marker-size":"medium"}},{"type":"Feature","geometry":{"type":"Point","coordinates":[2.78388,49.98111]},"properties":{"type":"place","label":"Maricourt","datetime":"1915-12-01T00:00:00Z","marker-color":"#00607d","marker-symbol":"circle","marker-size":"medium"}},{"type":"Feature","geometry":{"type":"Point","coordinates":[2.63333,50.53333]},"properties":{"type":"place","label":"Petticoat Lane","datetime":"1915-12-01T11:45:00Z","marker-color":"#00607d","marker-symbol":"circle","marker-size":"medium"}},{"type":"Feature","geometry":{"type":"Point","coordinates":[2.68541,50.51674]},"properties":{"type":"place","label":"Beuvry","datetime":"1915-12-01T00:00:00Z","marker-color":"#00607d","marker-symbol":"circle","marker-size":"medium"}},{"type":"Feature","geometry":{"type":"Point","coordinates":[4.65769,50.39282]},"properties":{"type":"place","label":"Vitrival","datetime":"1915-12-01T00:00:00Z","marker-color":"#00607d","marker-symbol":"circle","marker-size":"medium"}},{"type":"Feature","geometry":{"type":"Point","coordinates":[2.92124,50.82552]},"properties":{"type":"place","label":"Verbrandenmolen","datetime":"1915-12-01T00:00:00Z","marker-color":"#00607d","marker-symbol":"circle","marker-size":"medium"}},{"type":"Feature","geometry":{"type":"Point","coordinates":[2.8261,46.41857]},"properties":{"type":"place","label":"St Riquier","datetime":"1915-12-01T00:00:00Z","marker-color":"#00607d","marker-symbol":"circle","marker-size":"medium"}},{"type":"Feature","geometry":{"type":"Point","coordinates":[2.8261,46.41857]},"properties":{"type":"place","label":"Neuville","datetime":"1915-12-01T00:00:00Z","marker-color":"#00607d","marker-symbol":"circle","marker-size":"medium"}},{"type":"Feature","geometry":{"type":"Point","coordinates":[2.5817,49.91979]},"properties":{"type":"place","label":"Sailly le Sec","datetime":"1915-12-01T00:00:00Z","marker-color":"#00607d","marker-symbol":"circle","marker-size":"medium"}},{"type":"Feature","geometry":{"type":"Point","coordinates":[2.64973,49.90862]},"properties":{"type":"place","label":"Chipilly","datetime":"1915-12-01T00:00:00Z","marker-color":"#00607d","marker-symbol":"circle","marker-size":"medium"}},{"type":"Feature","geometry":{"type":"Point","coordinates":[2.71847,49.94085]},"properties":{"type":"place","label":"Bray-sur-Somme","datetime":"1915-12-01T00:00:00Z","marker-color":"#00607d","marker-symbol":"circle","marker-size":"medium"}},{"type":"Feature","geometry":{"type":"Point","coordinates":[2.71847,49.94085]},"properties":{"type":"place","label":"Mericourt Railhead","datetime":"1915-12-01T00:00:00Z","marker-color":"#00607d","marker-symbol":"circle","marker-size":"medium"}},{"type":"Feature","geometry":{"type":"Point","coordinates":[2.71847,49.94085]},"properties":{"type":"place","label":"Mericourt","datetime":"1915-12-01T00:00:00Z","marker-color":"#00607d","marker-symbol":"circle","marker-size":"medium"}},{"type":"Feature","geometry":{"type":"Point","coordinates":[2.71847,49.94085]},"properties":{"type":"place","label":"Lucknow Redoubt","datetime":"1915-12-01T00:00:00Z","marker-color":"#00607d","marker-symbol":"circle","marker-size":"medium"}},{"type":"Feature","geometry":{"type":"Point","coordinates":[2.71847,49.94085]},"properties":{"type":"place","label":"Peronne Railway","datetime":"1915-12-01T00:00:00Z","marker-color":"#00607d","marker-symbol":"circle","marker-size":"medium"}},{"type":"Feature","geometry":{"type":"Point","coordinates":[2.71847,49.94085]},"properties":{"type":"place","label":"Bray","datetime":"1915-12-01T00:00:00Z","marker-color":"#00607d","marker-symbol":"circle","marker-size":"medium"}},{"type":"Feature","geometry":{"type":"Point","coordinates":[2.71847,49.94085]},"properties":{"type":"place","label":"Bray","datetime":"1915-12-01T00:00:00Z","marker-color":"#00607d","marker-symbol":"circle","marker-size":"medium"}},{"type":"Feature","geometry":{"type":"Point","coordinates":[2.44441,49.94072]},"properties":{"type":"place","label":"Pont Novelle","datetime":"1915-12-01T00:00:00Z","marker-color":"#00607d","marker-symbol":"circle","marker-size":"medium"}},{"type":"Feature","geometry":{"type":"Point","coordinates":[2.7558,49.98489]},"properties":{"type":"place","label":"Carnoy","datetime":"1915-12-01T00:00:00Z","marker-color":"#00607d","marker-symbol":"circle","marker-size":"medium"}},{"type":"Feature","geometry":{"type":"Point","coordinates":[2.78388,49.98111]},"properties":{"type":"place","label":"Maricourt","datetime":"1915-12-01T00:00:00Z","marker-color":"#00607d","marker-symbol":"circle","marker-size":"medium"}},{"type":"Feature","geometry":{"type":"Point","coordinates":[2.78388,49.98111]},"properties":{"type":"place","label":"Maricourt, maricourt","datetime":"1915-12-01T00:00:00Z","marker-color":"#00607d","marker-symbol":"circle","marker-size":"medium"}},{"type":"Feature","geometry":{"type":"Point","coordinates":[1.28272,49.9086]},"properties":{"type":"place","label":"Bray","datetime":"1915-12-01T00:00:00Z","marker-color":"#00607d","marker-symbol":"circle","marker-size":"medium"}},{"type":"Feature","geometry":{"type":"Point","coordinates":[2.71847,49.94085]},"properties":{"type":"place","label":"Bray","datetime":"1915-12-01T00:00:00Z","marker-color":"#00607d","marker-symbol":"circle","marker-size":"medium"}},{"type":"Feature","geometry":{"type":"Point","coordinates":[2.55828,50.09298]},"properties":{"type":"place","label":"Bertrancourt","datetime":"1915-12-01T00:00:00Z","marker-color":"#00607d","marker-symbol":"circle","marker-size":"medium"}},{"type":"Feature","geometry":{"type":"Point","coordinates":[2.55828,50.09298]},"properties":{"type":"place","label":"Bertrancourt","datetime":"1915-12-01T00:00:00Z","marker-color":"#00607d","marker-symbol":"circle","marker-size":"medium"}},{"type":"Feature","geometry":{"type":"Point","coordinates":[1.28272,49.9086]},"properties":{"type":"place","label":"Bray","datetime":"1915-12-01T00:00:00Z","marker-color":"#00607d","marker-symbol":"circle","marker-size":"medium"}},{"type":"Feature","geometry":{"type":"Point","coordinates":[2.32478,50.63485]},"properties":{"type":"place","label":"Mametz","datetime":"1915-12-01T00:00:00Z","marker-color":"#00607d","marker-symbol":"circle","marker-size":"medium"}},{"type":"Feature","geometry":{"type":"Point","coordinates":[2.29892,49.96997]},"properties":{"type":"place","label":"Coisy","datetime":"1915-12-01T00:00:00Z","marker-color":"#00607d","marker-symbol":"circle","marker-size":"medium"}},{"type":"Feature","geometry":{"type":"Point","coordinates":[2.29892,49.96997]},"properties":{"type":"place","label":"Allonville","datetime":"1915-12-01T00:00:00Z","marker-color":"#00607d","marker-symbol":"circle","marker-size":"medium"}},{"type":"Feature","geometry":{"type":"Point","coordinates":[2.29892,49.96997]},"properties":{"type":"place","label":"Querrieu","datetime":"1915-12-01T00:00:00Z","marker-color":"#00607d","marker-symbol":"circle","marker-size":"medium"}},{"type":"Feature","geometry":{"type":"Point","coordinates":[2.29892,49.96997]},"properties":{"type":"place","label":"La Houssoye","datetime":"1915-12-01T00:00:00Z","marker-color":"#00607d","marker-symbol":"circle","marker-size":"medium"}},{"type":"Feature","geometry":{"type":"Point","coordinates":[2.29892,49.96997]},"properties":{"type":"place","label":"Bertangles","datetime":"1915-12-01T13:15:00Z","marker-color":"#00607d","marker-symbol":"circle","marker-size":"medium"}},{"type":"Feature","geometry":{"type":"Point","coordinates":[2.72659,50.85386]},"properties":{"type":"place","label":"Poperinghe","datetime":"1915-12-01T00:00:00Z","marker-color":"#00607d","marker-symbol":"circle","marker-size":"medium"}},{"type":"Feature","geometry":{"type":"Point","coordinates":[2.62074,50.85864]},"properties":{"type":"place","label":"Watou","datetime":"1915-12-01T00:00:00Z","marker-color":"#00607d","marker-symbol":"circle","marker-size":"medium"}},{"type":"Feature","geometry":{"type":"Point","coordinates":[2.91518,50.69499]},"properties":{"type":"place","label":"Marseilles","datetime":"1915-12-01T00:00:00Z","marker-color":"#00607d","marker-symbol":"circle","marker-size":"medium"}},{"type":"Feature","geometry":{"type":"Point","coordinates":[2.8171,50.88476]},"properties":{"type":"place","label":"Elverdinghe","datetime":"1915-12-01T00:00:00Z","marker-color":"#00607d","marker-symbol":"circle","marker-size":"medium"}},{"type":"Feature","geometry":{"type":"Point","coordinates":[2.72659,50.85386]},"properties":{"type":"place","label":"Poperinghe","datetime":"1915-12-01T00:00:00Z","marker-color":"#00607d","marker-symbol":"circle","marker-size":"medium"}},{"type":"Feature","geometry":{"type":"Point","coordinates":[2.47431,50.60722]},"properties":{"type":"place","label":"Berguette","datetime":"1915-12-01T00:00:00Z","marker-color":"#00607d","marker-symbol":"circle","marker-size":"medium"}},{"type":"Feature","geometry":{"type":"Point","coordinates":[2.73593,50.5425]},"properties":{"type":"place","label":"Festubert","datetime":"1915-12-01T00:00:00Z","marker-color":"#00607d","marker-symbol":"circle","marker-size":"medium"}},{"type":"Feature","geometry":{"type":"Point","coordinates":[2.73593,50.5425]},"properties":{"type":"place","label":"Festubert","datetime":"1915-12-01T00:00:00Z","marker-color":"#00607d","marker-symbol":"circle","marker-size":"medium"}},{"type":"Feature","geometry":{"type":"Point","coordinates":[2.73593,50.5425]},"properties":{"type":"place","label":"Festubert","datetime":"1915-12-01T00:00:00Z","marker-color":"#00607d","marker-symbol":"circle","marker-size":"medium"}},{"type":"Feature","geometry":{"type":"Point","coordinates":[2.63333,50.53333]},"properties":{"type":"place","label":"Bethune","datetime":"1915-12-01T00:00:00Z","marker-color":"#00607d","marker-symbol":"circle","marker-size":"medium"}},{"type":"Feature","geometry":{"type":"Point","coordinates":[2.63333,50.53333]},"properties":{"type":"place","label":"Bethune","datetime":"1915-12-01T00:00:00Z","marker-color":"#00607d","marker-symbol":"circle","marker-size":"medium"}},{"type":"Feature","geometry":{"type":"Point","coordinates":[2.63333,50.53333]},"properties":{"type":"place","label":"Bethune","datetime":"1915-12-01T00:00:00Z","marker-color":"#00607d","marker-symbol":"circle","marker-size":"medium"}},{"type":"Feature","geometry":{"type":"Point","coordinates":[2.51827,50.58781]},"properties":{"type":"place","label":"Busnes","datetime":"1915-12-01T00:00:00Z","marker-color":"#00607d","marker-symbol":"circle","marker-size":"medium"}},{"type":"Feature","geometry":{"type":"Point","coordinates":[2.51827,50.58781]},"properties":{"type":"place","label":"Bethune","datetime":"1915-12-01T00:00:00Z","marker-color":"#00607d","marker-symbol":"circle","marker-size":"medium"}},{"type":"Feature","geometry":{"type":"Point","coordinates":[2.6662,50.54868]},"properties":{"type":"place","label":"L'Ecleme, l'ecleme, L'Eclerne, l ecleme, L' ECLAME","datetime":"1915-12-01T00:00:00Z","marker-color":"#00607d","marker-symbol":"circle","marker-size":"medium"}},{"type":"Feature","geometry":{"type":"Point","coordinates":[2.68437,50.55285]},"properties":{"type":"place","label":"L'Ecleme","datetime":"1915-12-01T00:00:00Z","marker-color":"#00607d","marker-symbol":"circle","marker-size":"medium"}},{"type":"Feature","geometry":{"type":"Point","coordinates":[2.48042,50.56345]},"properties":{"type":"place","label":"Lillers, LILLERS, lillers","datetime":"1915-12-01T00:00:00Z","marker-color":"#00607d","marker-symbol":"circle","marker-size":"medium"}},{"type":"Feature","geometry":{"type":"Point","coordinates":[2.64973,49.90862]},"properties":{"type":"place","label":"chipilly","datetime":"1915-12-01T00:00:00Z","marker-color":"#00607d","marker-symbol":"circle","marker-size":"medium"}},{"type":"Feature","geometry":{"type":"Point","coordinates":[6.04084,43.41603]},"properties":{"type":"place","label":"Fletre","datetime":"1915-02-01T00:00:00Z","marker-color":"#00607d","marker-symbol":"circle","marker-size":"medium"}},{"type":"Feature","geometry":{"type":"Point","coordinates":[4.88333,50.3]},"properties":{"type":"place","label":"Godewaresvelde","datetime":"1915-02-01T00:00:00Z","marker-color":"#00607d","marker-symbol":"circle","marker-size":"medium"}},{"type":"Feature","geometry":{"type":"Point","coordinates":[2.64444,50.69489]},"properties":{"type":"place","label":"Vieux Berquin","datetime":"1915-02-01T00:00:00Z","marker-color":"#00607d","marker-symbol":"circle","marker-size":"medium"}},{"type":"Feature","geometry":{"type":"Point","coordinates":[2.64444,50.69489]},"properties":{"type":"place","label":"Vieux Berquin","datetime":"1915-02-01T14:00:00Z","marker-color":"#00607d","marker-symbol":"circle","marker-size":"medium"}},{"type":"Feature","geometry":{"type":"Point","coordinates":[2.73594,50.73592]},"properties":{"type":"place","label":"Thieshouk","datetime":"1915-02-01T00:00:00Z","marker-color":"#00607d","marker-symbol":"circle","marker-size":"medium"}},{"type":"Feature","geometry":{"type":"Point","coordinates":[2.77829,50.70199]},"properties":{"type":"place","label":"Vieux Berquin","datetime":"1915-02-01T00:00:00Z","marker-color":"#00607d","marker-symbol":"circle","marker-size":"medium"}},{"type":"Feature","geometry":{"type":"Point","coordinates":[2.73594,50.73592]},"properties":{"type":"place","label":"Bailleul","datetime":"1915-02-01T00:00:00Z","marker-color":"#00607d","marker-symbol":"circle","marker-size":"medium"}},{"type":"Feature","geometry":{"type":"Point","coordinates":[2.53729,50.72374]},"properties":{"type":"place","label":"Hazebrouck","datetime":"1915-02-01T00:00:00Z","marker-color":"#00607d","marker-symbol":"circle","marker-size":"medium"}},{"type":"Feature","geometry":{"type":"Point","coordinates":[2.40983,50.7322]},"properties":{"type":"place","label":"Ebblinghem","datetime":"1915-02-01T00:00:00Z","marker-color":"#00607d","marker-symbol":"circle","marker-size":"medium"}},{"type":"Feature","geometry":{"type":"Point","coordinates":[1.83333,50.1]},"properties":{"type":"place","label":"Hazebrouk","datetime":"1915-02-01T00:00:00Z","marker-color":"#00607d","marker-symbol":"circle","marker-size":"medium"}},{"type":"Feature","geometry":{"type":"Point","coordinates":[2.48442,50.67421]},"properties":{"type":"place","label":"Steenbecque","datetime":"1915-02-01T00:00:00Z","marker-color":"#00607d","marker-symbol":"circle","marker-size":"medium"}},{"type":"Feature","geometry":{"type":"Point","coordinates":[2.40321,50.6911]},"properties":{"type":"place","label":"Blaringhem","datetime":"1915-02-01T00:00:00Z","marker-color":"#00607d","marker-symbol":"circle","marker-size":"medium"}},{"type":"Feature","geometry":{"type":"Point","coordinates":[2.40321,50.6911]},"properties":{"type":"place","label":"Ypres","datetime":"1915-02-01T00:00:00Z","marker-color":"#00607d","marker-symbol":"circle","marker-size":"medium"}},{"type":"Feature","geometry":{"type":"Point","coordinates":[2.40321,50.6911]},"properties":{"type":"place","label":"Ypres","datetime":"1915-02-01T08:30:00Z","marker-color":"#00607d","marker-symbol":"circle","marker-size":"medium"}},{"type":"Feature","geometry":{"type":"Point","coordinates":[2.63333,50.53333]},"properties":{"type":"place","label":"Beuvry","datetime":"1915-02-01T07:00:00Z","marker-color":"#00607d","marker-symbol":"circle","marker-size":"medium"}},{"type":"Feature","geometry":{"type":"Point","coordinates":[2.63333,50.53333]},"properties":{"type":"place","label":"Bethune","datetime":"1915-02-01T07:00:00Z","marker-color":"#00607d","marker-symbol":"circle","marker-size":"medium"}},{"type":"Feature","geometry":{"type":"Point","coordinates":[2.74082,50.5097]},"properties":{"type":"place","label":"Cambrin","datetime":"1915-02-01T03:00:00Z","marker-color":"#00607d","marker-symbol":"circle","marker-size":"medium"}},{"type":"Feature","geometry":{"type":"Point","coordinates":[2.72019,50.50525]},"properties":{"type":"place","label":"Cuinchy","datetime":"1915-02-01T00:00:00Z","marker-color":"#00607d","marker-symbol":"circle","marker-size":"medium"}},{"type":"Feature","geometry":{"type":"Point","coordinates":[2.72019,50.50525]},"properties":{"type":"place","label":"Pont Fixe","datetime":"1915-02-01T00:00:00Z","marker-color":"#00607d","marker-symbol":"circle","marker-size":"medium"}},{"type":"Feature","geometry":{"type":"Point","coordinates":[0.98369,45.74006]},"properties":{"type":"place","label":"Fesuibert","datetime":"1915-02-01T00:00:00Z","marker-color":"#00607d","marker-symbol":"circle","marker-size":"medium"}},{"type":"Feature","geometry":{"type":"Point","coordinates":[3.60321,49.34988]},"properties":{"type":"place","label":"Essars","datetime":"1915-02-01T00:00:00Z","marker-color":"#00607d","marker-symbol":"circle","marker-size":"medium"}},{"type":"Feature","geometry":{"type":"Point","coordinates":[2.6662,50.54868]},"properties":{"type":"place","label":"Essars","datetime":"1915-02-01T00:00:00Z","marker-color":"#00607d","marker-symbol":"circle","marker-size":"medium"}},{"type":"Feature","geometry":{"type":"Point","coordinates":[2.66629,50.57029]},"properties":{"type":"place","label":"Mesplaux","datetime":"1915-02-01T00:00:00Z","marker-color":"#00607d","marker-symbol":"circle","marker-size":"medium"}},{"type":"Feature","geometry":{"type":"Point","coordinates":[2.66629,50.57029]},"properties":{"type":"place","label":"Hinges","datetime":"1915-02-01T00:00:00Z","marker-color":"#00607d","marker-symbol":"circle","marker-size":"medium"}},{"type":"Feature","geometry":{"type":"Point","coordinates":[2.87409,50.64985]},"properties":{"type":"place","label":"Bois Grenier","datetime":"1915-02-01T00:00:00Z","marker-color":"#00607d","marker-symbol":"circle","marker-size":"medium"}},{"type":"Feature","geometry":{"type":"Point","coordinates":[2.74647,50.79722]},"properties":{"type":"place","label":"Westoutre","datetime":"1915-02-01T00:00:00Z","marker-color":"#00607d","marker-symbol":"circle","marker-size":"medium"}},{"type":"Feature","geometry":{"type":"Point","coordinates":[2.74647,50.79722]},"properties":{"type":"place","label":"Locre","datetime":"1915-02-01T16:15:00Z","marker-color":"#00607d","marker-symbol":"circle","marker-size":"medium"}},{"type":"Feature","geometry":{"type":"Point","coordinates":[2.74647,50.79722]},"properties":{"type":"place","label":"Berthen","datetime":"1915-02-01T21:00:00Z","marker-color":"#00607d","marker-symbol":"circle","marker-size":"medium"}},{"type":"Feature","geometry":{"type":"Point","coordinates":[2.81071,50.80585]},"properties":{"type":"place","label":"La Croix de Poperinghe, Croix de Poperinghe","datetime":"1915-02-01T00:00:00Z","marker-color":"#00607d","marker-symbol":"circle","marker-size":"medium"}},{"type":"Feature","geometry":{"type":"Point","coordinates":[2.73594,50.73592]},"properties":{"type":"place","label":"Bailleul","datetime":"1915-02-01T15:00:00Z","marker-color":"#00607d","marker-symbol":"circle","marker-size":"medium"}},{"type":"Feature","geometry":{"type":"Point","coordinates":[2.73594,50.73592]},"properties":{"type":"place","label":"Wulvershem, wulvergem, Wulverghem","datetime":"1915-02-01T15:00:00Z","marker-color":"#00607d","marker-symbol":"circle","marker-size":"medium"}},{"type":"Feature","geometry":{"type":"Point","coordinates":[4.58333,51.23333]},"properties":{"type":"place","label":"Wolverghem","datetime":"1915-02-01T00:00:00Z","marker-color":"#00607d","marker-symbol":"circle","marker-size":"medium"}},{"type":"Feature","geometry":{"type":"Point","coordinates":[4.58333,51.23333]},"properties":{"type":"place","label":"Messines","datetime":"1915-02-01T06:15:00Z","marker-color":"#00607d","marker-symbol":"circle","marker-size":"medium"}},{"type":"Feature","geometry":{"type":"Point","coordinates":[4.58333,51.23333]},"properties":{"type":"place","label":"BAILLEUL, Bailleul","datetime":"1915-02-01T06:15:00Z","marker-color":"#00607d","marker-symbol":"circle","marker-size":"medium"}},{"type":"Feature","geometry":{"type":"Point","coordinates":[2.7839,50.76602]},"properties":{"type":"place","label":"Dranoutre","datetime":"1915-02-01T00:00:00Z","marker-color":"#00607d","marker-symbol":"circle","marker-size":"medium"}},{"type":"Feature","geometry":{"type":"Point","coordinates":[2.7839,50.76602]},"properties":{"type":"place","label":"St Jans Cappel","datetime":"1915-02-01T00:00:00Z","marker-color":"#00607d","marker-symbol":"circle","marker-size":"medium"}},{"type":"Feature","geometry":{"type":"Point","coordinates":[2.7839,50.76602]},"properties":{"type":"place","label":"Dranoutre","datetime":"1915-02-01T00:00:00Z","marker-color":"#00607d","marker-symbol":"circle","marker-size":"medium"}},{"type":"Feature","geometry":{"type":"Point","coordinates":[2.73594,50.73592]},"properties":{"type":"place","label":"Bailleul","datetime":"1915-02-01T00:00:00Z","marker-color":"#00607d","marker-symbol":"circle","marker-size":"medium"}},{"type":"Feature","geometry":{"type":"Point","coordinates":[2.85243,50.76021]},"properties":{"type":"place","label":"Wulvergem","datetime":"1915-02-01T00:00:00Z","marker-color":"#00607d","marker-symbol":"circle","marker-size":"medium"}},{"type":"Feature","geometry":{"type":"Point","coordinates":[2.73594,50.73592]},"properties":{"type":"place","label":"Bailleul","datetime":"1915-02-01T00:00:00Z","marker-color":"#00607d","marker-symbol":"circle","marker-size":"medium"}},{"type":"Feature","geometry":{"type":"Point","coordinates":[2.83506,50.70425]},"properties":{"type":"place","label":"Chappel d'Armentieres, Chapel D'Armentieres","datetime":"1915-02-01T00:00:00Z","marker-color":"#00607d","marker-symbol":"circle","marker-size":"medium"}},{"type":"Feature","geometry":{"type":"Point","coordinates":[2.88214,50.68568]},"properties":{"type":"place","label":"Armentieres","datetime":"1915-02-01T00:00:00Z","marker-color":"#00607d","marker-symbol":"circle","marker-size":"medium"}},{"type":"Feature","geometry":{"type":"Point","coordinates":[2.83305,50.65061]},"properties":{"type":"place","label":"Fleurbaix","datetime":"1915-02-01T00:00:00Z","marker-color":"#00607d","marker-symbol":"circle","marker-size":"medium"}},{"type":"Feature","geometry":{"type":"Point","coordinates":[-0.46632,52.13459]},"properties":{"type":"place","label":"Bedford","datetime":"1915-02-01T00:00:00Z","marker-color":"#00607d","marker-symbol":"circle","marker-size":"medium"}},{"type":"Feature","geometry":{"type":"Point","coordinates":[2.69506,50.78305]},"properties":{"type":"place","label":"Berthen","datetime":"1915-01-01T00:00:00Z","marker-color":"#00607d","marker-symbol":"circle","marker-size":"medium"}},{"type":"Feature","geometry":{"type":"Point","coordinates":[2.64444,50.69489]},"properties":{"type":"place","label":"Vieux","datetime":"1915-01-01T00:00:00Z","marker-color":"#00607d","marker-symbol":"circle","marker-size":"medium"}},{"type":"Feature","geometry":{"type":"Point","coordinates":[2.89764,50.76581]},"properties":{"type":"place","label":"Thieshouk","datetime":"1915-01-01T00:00:00Z","marker-color":"#00607d","marker-symbol":"circle","marker-size":"medium"}},{"type":"Feature","geometry":{"type":"Point","coordinates":[2.73594,50.73592]},"properties":{"type":"place","label":"Bailleul","datetime":"1915-01-01T00:00:00Z","marker-color":"#00607d","marker-symbol":"circle","marker-size":"medium"}},{"type":"Feature","geometry":{"type":"Point","coordinates":[2.73594,50.73592]},"properties":{"type":"place","label":"Bailleul","datetime":"1915-01-01T00:00:00Z","marker-color":"#00607d","marker-symbol":"circle","marker-size":"medium"}},{"type":"Feature","geometry":{"type":"Point","coordinates":[2.53729,50.72374]},"properties":{"type":"place","label":"Hazebrouck","datetime":"1915-01-01T00:00:00Z","marker-color":"#00607d","marker-symbol":"circle","marker-size":"medium"}},{"type":"Feature","geometry":{"type":"Point","coordinates":[2.53729,50.72374]},"properties":{"type":"place","label":"hazebrouck, Hazebrouck","datetime":"1915-01-01T00:00:00Z","marker-color":"#00607d","marker-symbol":"circle","marker-size":"medium"}},{"type":"Feature","geometry":{"type":"Point","coordinates":[2.53729,50.72374]},"properties":{"type":"place","label":"Hazebrouck","datetime":"1915-01-01T00:00:00Z","marker-color":"#00607d","marker-symbol":"circle","marker-size":"medium"}},{"type":"Feature","geometry":{"type":"Point","coordinates":[2.40983,50.7322]},"properties":{"type":"place","label":"Boulogne","datetime":"1915-01-01T20:30:00Z","marker-color":"#00607d","marker-symbol":"circle","marker-size":"medium"}},{"type":"Feature","geometry":{"type":"Point","coordinates":[2.63333,50.53333]},"properties":{"type":"place","label":"Bethune","datetime":"1915-01-01T00:00:00Z","marker-color":"#00607d","marker-symbol":"circle","marker-size":"medium"}},{"type":"Feature","geometry":{"type":"Point","coordinates":[2.63333,50.53333]},"properties":{"type":"place","label":"Bethune","datetime":"1915-01-01T00:00:00Z","marker-color":"#00607d","marker-symbol":"circle","marker-size":"medium"}},{"type":"Feature","geometry":{"type":"Point","coordinates":[2.63333,50.53333]},"properties":{"type":"place","label":"Bethune","datetime":"1915-01-01T00:00:00Z","marker-color":"#00607d","marker-symbol":"circle","marker-size":"medium"}},{"type":"Feature","geometry":{"type":"Point","coordinates":[2.71246,50.56268]},"properties":{"type":"place","label":"Le Touret","datetime":"1915-01-01T00:00:00Z","marker-color":"#00607d","marker-symbol":"circle","marker-size":"medium"}},{"type":"Feature","geometry":{"type":"Point","coordinates":[5.05938,48.02123]},"properties":{"type":"place","label":"Richebourg, Richebourg ","datetime":"1915-01-01T00:00:00Z","marker-color":"#00607d","marker-symbol":"circle","marker-size":"medium"}},{"type":"Feature","geometry":{"type":"Point","coordinates":[2.91518,50.69499]},"properties":{"type":"place","label":"Erquinghem","datetime":"1915-01-01T00:00:00Z","marker-color":"#00607d","marker-symbol":"circle","marker-size":"medium"}},{"type":"Feature","geometry":{"type":"Point","coordinates":[2.88214,50.68568]},"properties":{"type":"place","label":"Armentieres","datetime":"1915-01-01T00:00:00Z","marker-color":"#00607d","marker-symbol":"circle","marker-size":"medium"}},{"type":"Feature","geometry":{"type":"Point","coordinates":[2.88214,50.68568]},"properties":{"type":"place","label":"Armentieres","datetime":"1915-01-01T00:00:00Z","marker-color":"#00607d","marker-symbol":"circle","marker-size":"medium"}},{"type":"Feature","geometry":{"type":"Point","coordinates":[2.88214,50.68568]},"properties":{"type":"place","label":"Houplines","datetime":"1915-01-01T00:00:00Z","marker-color":"#00607d","marker-symbol":"circle","marker-size":"medium"}},{"type":"Feature","geometry":{"type":"Point","coordinates":[2.74647,50.79722]},"properties":{"type":"place","label":"westouter, Westoutre","datetime":"1915-01-01T00:00:00Z","marker-color":"#00607d","marker-symbol":"circle","marker-size":"medium"}},{"type":"Feature","geometry":{"type":"Point","coordinates":[2.74647,50.79722]},"properties":{"type":"place","label":"Westoutre","datetime":"1915-01-01T00:00:00Z","marker-color":"#00607d","marker-symbol":"circle","marker-size":"medium"}},{"type":"Feature","geometry":{"type":"Point","coordinates":[2.74647,50.79722]},"properties":{"type":"place","label":"berthen, Berthen","datetime":"1915-01-01T00:00:00Z","marker-color":"#00607d","marker-symbol":"circle","marker-size":"medium"}},{"type":"Feature","geometry":{"type":"Point","coordinates":[2.74647,50.79722]},"properties":{"type":"place","label":"Locre","datetime":"1915-01-01T00:00:00Z","marker-color":"#00607d","marker-symbol":"circle","marker-size":"medium"}},{"type":"Feature","geometry":{"type":"Point","coordinates":[2.82714,50.78333]},"properties":{"type":"place","label":"Westoutre, Westeatre","datetime":"1915-01-01T00:00:00Z","marker-color":"#00607d","marker-symbol":"circle","marker-size":"medium"}},{"type":"Feature","geometry":{"type":"Point","coordinates":[2.24234,50.69783]},"properties":{"type":"place","label":"Helfaut","datetime":"1915-01-01T00:00:00Z","marker-color":"#00607d","marker-symbol":"circle","marker-size":"medium"}},{"type":"Feature","geometry":{"type":"Point","coordinates":[-0.3,46.36667]},"properties":{"type":"place","label":"La Creche","datetime":"1915-01-01T00:00:00Z","marker-color":"#00607d","marker-symbol":"circle","marker-size":"medium"}},{"type":"Feature","geometry":{"type":"Point","coordinates":[2.64513,50.75507]},"properties":{"type":"place","label":"Croix de Poperinghe","datetime":"1915-01-01T00:00:00Z","marker-color":"#00607d","marker-symbol":"circle","marker-size":"medium"}},{"type":"Feature","geometry":{"type":"Point","coordinates":[1.59988,49.71084]},"properties":{"type":"place","label":"Dranouter, DRAMOUTRE, Dranoutre, dranoutre","datetime":"1915-01-01T00:00:00Z","marker-color":"#00607d","marker-symbol":"circle","marker-size":"medium"}},{"type":"Feature","geometry":{"type":"Point","coordinates":[2.73594,50.73592]},"properties":{"type":"place","label":"Bailleul","datetime":"1915-01-01T00:00:00Z","marker-color":"#00607d","marker-symbol":"circle","marker-size":"medium"}},{"type":"Feature","geometry":{"type":"Point","coordinates":[2.73594,50.73592]},"properties":{"type":"place","label":"Bailleul","datetime":"1915-01-01T00:00:00Z","marker-color":"#00607d","marker-symbol":"circle","marker-size":"medium"}},{"type":"Feature","geometry":{"type":"Point","coordinates":[2.73594,50.73592]},"properties":{"type":"place","label":"Bailleul","datetime":"1915-01-01T00:00:00Z","marker-color":"#00607d","marker-symbol":"circle","marker-size":"medium"}},{"type":"Feature","geometry":{"type":"Point","coordinates":[2.73594,50.73592]},"properties":{"type":"place","label":"Bailleul","datetime":"1915-01-01T00:00:00Z","marker-color":"#00607d","marker-symbol":"circle","marker-size":"medium"}},{"type":"Feature","geometry":{"type":"Point","coordinates":[2.73594,50.73592]},"properties":{"type":"place","label":"Bailleul","datetime":"1915-01-01T00:00:00Z","marker-color":"#00607d","marker-symbol":"circle","marker-size":"medium"}},{"type":"Feature","geometry":{"type":"Point","coordinates":[2.73594,50.73592]},"properties":{"type":"place","label":"Bailleul","datetime":"1915-01-01T00:00:00Z","marker-color":"#00607d","marker-symbol":"circle","marker-size":"medium"}},{"type":"Feature","geometry":{"type":"Point","coordinates":[2.87409,50.64985]},"properties":{"type":"place","label":"Asylum of Armentieres","datetime":"1915-01-01T00:00:00Z","marker-color":"#00607d","marker-symbol":"circle","marker-size":"medium"}},{"type":"Feature","geometry":{"type":"Point","coordinates":[2.87409,50.64985]},"properties":{"type":"place","label":"armentieres, Armentieres","datetime":"1915-01-01T00:00:00Z","marker-color":"#00607d","marker-symbol":"circle","marker-size":"medium"}},{"type":"Feature","geometry":{"type":"Point","coordinates":[2.91518,50.69499]},"properties":{"type":"place","label":"Houplines","datetime":"1915-01-01T00:00:00Z","marker-color":"#00607d","marker-symbol":"circle","marker-size":"medium"}},{"type":"Feature","geometry":{"type":"Point","coordinates":[2.9,50.68333]},"properties":{"type":"place","label":"Chapelle Armentieres","datetime":"1915-01-01T00:00:00Z","marker-color":"#00607d","marker-symbol":"circle","marker-size":"medium"}},{"type":"Feature","geometry":{"type":"Point","coordinates":[2.83305,50.65061]},"properties":{"type":"place","label":"MORTIER FRANCE","datetime":"1915-01-01T00:00:00Z","marker-color":"#00607d","marker-symbol":"circle","marker-size":"medium"}},{"type":"Feature","geometry":{"type":"Point","coordinates":[2.83305,50.65061]},"properties":{"type":"place","label":"Petit Mortier","datetime":"1915-01-01T00:00:00Z","marker-color":"#00607d","marker-symbol":"circle","marker-size":"medium"}},{"type":"Feature","geometry":{"type":"Point","coordinates":[2.83305,50.65061]},"properties":{"type":"place","label":"MORTIER FRANCE","datetime":"1915-01-01T00:00:00Z","marker-color":"#00607d","marker-symbol":"circle","marker-size":"medium"}},{"type":"Feature","geometry":{"type":"Point","coordinates":[2.83305,50.65061]},"properties":{"type":"place","label":"Fleurbaix","datetime":"1915-01-01T00:00:00Z","marker-color":"#00607d","marker-symbol":"circle","marker-size":"medium"}},{"type":"Feature","geometry":{"type":"Point","coordinates":[2.83305,50.65061]},"properties":{"type":"place","label":"Fleurbaix","datetime":"1915-01-01T17:00:00Z","marker-color":"#00607d","marker-symbol":"circle","marker-size":"medium"}},{"type":"Feature","geometry":{"type":"Point","coordinates":[2.46901,50.88129]},"properties":{"type":"place","label":"Wormhoudt","datetime":"1915-07-01T00:00:00Z","marker-color":"#00607d","marker-symbol":"circle","marker-size":"medium"}},{"type":"Feature","geometry":{"type":"Point","coordinates":[2.46901,50.88129]},"properties":{"type":"place","label":"Wormhoudt","datetime":"1915-07-01T00:00:00Z","marker-color":"#00607d","marker-symbol":"circle","marker-size":"medium"}},{"type":"Feature","geometry":{"type":"Point","coordinates":[2.44178,50.85576]},"properties":{"type":"place","label":"Ledringhem","datetime":"1915-07-01T00:00:00Z","marker-color":"#00607d","marker-symbol":"circle","marker-size":"medium"}},{"type":"Feature","geometry":{"type":"Point","coordinates":[2.81852,50.81378]},"properties":{"type":"place","label":"Hallebast","datetime":"1915-07-01T00:00:00Z","marker-color":"#00607d","marker-symbol":"circle","marker-size":"medium"}},{"type":"Feature","geometry":{"type":"Point","coordinates":[2.82714,50.78333]},"properties":{"type":"place","label":"Kemmel","datetime":"1915-07-01T00:00:00Z","marker-color":"#00607d","marker-symbol":"circle","marker-size":"medium"}},{"type":"Feature","geometry":{"type":"Point","coordinates":[2.82024,50.85485]},"properties":{"type":"place","label":"Vlamertinghe","datetime":"1915-07-01T00:00:00Z","marker-color":"#00607d","marker-symbol":"circle","marker-size":"medium"}},{"type":"Feature","geometry":{"type":"Point","coordinates":[2.48527,50.80109]},"properties":{"type":"place","label":"Elverdinghe, elverdinghe, ELVERDINGHE","datetime":"1915-07-01T00:00:00Z","marker-color":"#00607d","marker-symbol":"circle","marker-size":"medium"}},{"type":"Feature","geometry":{"type":"Point","coordinates":[2.46901,50.88129]},"properties":{"type":"place","label":"wormhoudt","datetime":"1915-07-01T00:00:00Z","marker-color":"#00607d","marker-symbol":"circle","marker-size":"medium"}},{"type":"Feature","geometry":{"type":"Point","coordinates":[2.82024,50.85485]},"properties":{"type":"place","label":"La Maison Blanche","datetime":"1915-07-01T00:00:00Z","marker-color":"#00607d","marker-symbol":"circle","marker-size":"medium"}},{"type":"Feature","geometry":{"type":"Point","coordinates":[2.82024,50.85485]},"properties":{"type":"place","label":"Reninghelst","datetime":"1915-07-01T00:00:00Z","marker-color":"#00607d","marker-symbol":"circle","marker-size":"medium"}},{"type":"Feature","geometry":{"type":"Point","coordinates":[2.82024,50.85485]},"properties":{"type":"place","label":"Dickebusch","datetime":"1915-07-01T00:00:00Z","marker-color":"#00607d","marker-symbol":"circle","marker-size":"medium"}},{"type":"Feature","geometry":{"type":"Point","coordinates":[2.4207,50.71284]},"properties":{"type":"place","label":"Renninghelst","datetime":"1915-07-01T00:00:00Z","marker-color":"#00607d","marker-symbol":"circle","marker-size":"medium"}},{"type":"Feature","geometry":{"type":"Point","coordinates":[2.4207,50.71284]},"properties":{"type":"place","label":"La Clytte","datetime":"1915-07-01T00:00:00Z","marker-color":"#00607d","marker-symbol":"circle","marker-size":"medium"}},{"type":"Feature","geometry":{"type":"Point","coordinates":[2.4207,50.71284]},"properties":{"type":"place","label":"Lynde","datetime":"1915-07-01T00:00:00Z","marker-color":"#00607d","marker-symbol":"circle","marker-size":"medium"}},{"type":"Feature","geometry":{"type":"Point","coordinates":[2.4207,50.71284]},"properties":{"type":"place","label":"Renninghelst-La Clytte Road","datetime":"1915-07-01T00:00:00Z","marker-color":"#00607d","marker-symbol":"circle","marker-size":"medium"}},{"type":"Feature","geometry":{"type":"Point","coordinates":[2.2999,50.77412]},"properties":{"type":"place","label":"Clairmarais","datetime":"1915-07-01T00:00:00Z","marker-color":"#00607d","marker-symbol":"circle","marker-size":"medium"}},{"type":"Feature","geometry":{"type":"Point","coordinates":[2.2999,50.77412]},"properties":{"type":"place","label":"Reninghelst","datetime":"1915-07-01T14:00:00Z","marker-color":"#00607d","marker-symbol":"circle","marker-size":"medium"}},{"type":"Feature","geometry":{"type":"Point","coordinates":[2.40321,50.6911]},"properties":{"type":"place","label":"Blaringhem","datetime":"1915-07-01T00:00:00Z","marker-color":"#00607d","marker-symbol":"circle","marker-size":"medium"}},{"type":"Feature","geometry":{"type":"Point","coordinates":[2.46676,50.65147]},"properties":{"type":"place","label":"Sailly","datetime":"1915-07-01T00:00:00Z","marker-color":"#00607d","marker-symbol":"circle","marker-size":"medium"}},{"type":"Feature","geometry":{"type":"Point","coordinates":[2.46676,50.65147]},"properties":{"type":"place","label":"PLOEGSTREET WOOD, Ploegstreet Wood","datetime":"1915-07-01T00:00:00Z","marker-color":"#00607d","marker-symbol":"circle","marker-size":"medium"}},{"type":"Feature","geometry":{"type":"Point","coordinates":[2.46676,50.65147]},"properties":{"type":"place","label":"Neuve Eglise","datetime":"1915-07-01T00:00:00Z","marker-color":"#00607d","marker-symbol":"circle","marker-size":"medium"}},{"type":"Feature","geometry":{"type":"Point","coordinates":[2.89764,50.76581]},"properties":{"type":"place","label":"Messines","datetime":"1915-07-01T00:00:00Z","marker-color":"#00607d","marker-symbol":"circle","marker-size":"medium"}},{"type":"Feature","geometry":{"type":"Point","coordinates":[2.89764,50.76581]},"properties":{"type":"place","label":"Elverdinghe","datetime":"1915-07-01T00:00:00Z","marker-color":"#00607d","marker-symbol":"circle","marker-size":"medium"}},{"type":"Feature","geometry":{"type":"Point","coordinates":[2.39141,50.66998]},"properties":{"type":"place","label":"Wittes","datetime":"1915-07-01T00:00:00Z","marker-color":"#00607d","marker-symbol":"circle","marker-size":"medium"}},{"type":"Feature","geometry":{"type":"Point","coordinates":[2.39141,50.66998]},"properties":{"type":"place","label":"Wittes","datetime":"1915-07-01T00:00:00Z","marker-color":"#00607d","marker-symbol":"circle","marker-size":"medium"}},{"type":"Feature","geometry":{"type":"Point","coordinates":[2.45615,50.70712]},"properties":{"type":"place","label":"Sercus","datetime":"1915-07-01T00:00:00Z","marker-color":"#00607d","marker-symbol":"circle","marker-size":"medium"}},{"type":"Feature","geometry":{"type":"Point","coordinates":[2.40321,50.6911]},"properties":{"type":"place","label":"Blaringhem","datetime":"1915-07-01T00:00:00Z","marker-color":"#00607d","marker-symbol":"circle","marker-size":"medium"}},{"type":"Feature","geometry":{"type":"Point","coordinates":[2.60999,50.51534]},"properties":{"type":"place","label":"Fouquieres-les-bethune","datetime":"1915-07-01T00:00:00Z","marker-color":"#00607d","marker-symbol":"circle","marker-size":"medium"}},{"type":"Feature","geometry":{"type":"Point","coordinates":[2.60999,50.51534]},"properties":{"type":"place","label":"Fouquieres","datetime":"1915-07-01T00:00:00Z","marker-color":"#00607d","marker-symbol":"circle","marker-size":"medium"}},{"type":"Feature","geometry":{"type":"Point","coordinates":[2.60999,50.51534]},"properties":{"type":"place","label":"Fouqui\u00e8res","datetime":"1915-07-01T00:00:00Z","marker-color":"#00607d","marker-symbol":"circle","marker-size":"medium"}},{"type":"Feature","geometry":{"type":"Point","coordinates":[2.63888,50.5024]},"properties":{"type":"place","label":"Verquin","datetime":"1915-07-01T00:00:00Z","marker-color":"#00607d","marker-symbol":"circle","marker-size":"medium"}},{"type":"Feature","geometry":{"type":"Point","coordinates":[2.63888,50.5024]},"properties":{"type":"place","label":"Verquin","datetime":"1915-07-01T00:00:00Z","marker-color":"#00607d","marker-symbol":"circle","marker-size":"medium"}},{"type":"Feature","geometry":{"type":"Point","coordinates":[2.63888,50.5024]},"properties":{"type":"place","label":"Labourse","datetime":"1915-07-01T00:00:00Z","marker-color":"#00607d","marker-symbol":"circle","marker-size":"medium"}},{"type":"Feature","geometry":{"type":"Point","coordinates":[2.63888,50.5024]},"properties":{"type":"place","label":"Noyelles les Vermelles, noyelles-lez-vermelles, Novelles-les-Vermelles, Noyelles les vermelles","datetime":"1915-07-01T00:00:00Z","marker-color":"#00607d","marker-symbol":"circle","marker-size":"medium"}},{"type":"Feature","geometry":{"type":"Point","coordinates":[2.63888,50.5024]},"properties":{"type":"place","label":"les vermelles, Vermelles","datetime":"1915-07-01T00:00:00Z","marker-color":"#00607d","marker-symbol":"circle","marker-size":"medium"}},{"type":"Feature","geometry":{"type":"Point","coordinates":[2.63888,50.5024]},"properties":{"type":"place","label":"Vermelles","datetime":"1915-07-01T00:00:00Z","marker-color":"#00607d","marker-symbol":"circle","marker-size":"medium"}},{"type":"Feature","geometry":{"type":"Point","coordinates":[2.74739,50.48949]},"properties":{"type":"place","label":"Le Routoire","datetime":"1915-07-01T00:00:00Z","marker-color":"#00607d","marker-symbol":"circle","marker-size":"medium"}},{"type":"Feature","geometry":{"type":"Point","coordinates":[2.74739,50.48949]},"properties":{"type":"place","label":"Le Routoire","datetime":"1915-07-01T00:00:00Z","marker-color":"#00607d","marker-symbol":"circle","marker-size":"medium"}},{"type":"Feature","geometry":{"type":"Point","coordinates":[2.69708,50.5012]},"properties":{"type":"place","label":"Sailly Labourse","datetime":"1915-07-01T00:00:00Z","marker-color":"#00607d","marker-symbol":"circle","marker-size":"medium"}},{"type":"Feature","geometry":{"type":"Point","coordinates":[2.69708,50.5012]},"properties":{"type":"place","label":"Prieure St Pry","datetime":"1915-07-01T00:00:00Z","marker-color":"#00607d","marker-symbol":"circle","marker-size":"medium"}},{"type":"Feature","geometry":{"type":"Point","coordinates":[2.60999,50.51534]},"properties":{"type":"place","label":"Fouquieres","datetime":"1915-07-01T00:00:00Z","marker-color":"#00607d","marker-symbol":"circle","marker-size":"medium"}},{"type":"Feature","geometry":{"type":"Point","coordinates":[3.12245,50.79722]},"properties":{"type":"place","label":"Bethune","datetime":"1915-07-01T00:00:00Z","marker-color":"#00607d","marker-symbol":"circle","marker-size":"medium"}},{"type":"Feature","geometry":{"type":"Point","coordinates":[2.74082,50.5097]},"properties":{"type":"place","label":"Bethune","datetime":"1915-07-01T00:00:00Z","marker-color":"#00607d","marker-symbol":"circle","marker-size":"medium"}},{"type":"Feature","geometry":{"type":"Point","coordinates":[2.63333,50.53333]},"properties":{"type":"place","label":"Bethune","datetime":"1915-07-01T00:00:00Z","marker-color":"#00607d","marker-symbol":"circle","marker-size":"medium"}},{"type":"Feature","geometry":{"type":"Point","coordinates":[2.76667,50.53333]},"properties":{"type":"place","label":"Givenchy","datetime":"1915-07-01T00:00:00Z","marker-color":"#00607d","marker-symbol":"circle","marker-size":"medium"}},{"type":"Feature","geometry":{"type":"Point","coordinates":[2.73054,49.17301]},"properties":{"type":"place","label":"Burnt Farm","datetime":"1915-07-01T00:00:00Z","marker-color":"#00607d","marker-symbol":"circle","marker-size":"medium"}},{"type":"Feature","geometry":{"type":"Point","coordinates":[2.87409,50.64985]},"properties":{"type":"place","label":"Bois Grenier","datetime":"1915-07-01T00:00:00Z","marker-color":"#00607d","marker-symbol":"circle","marker-size":"medium"}},{"type":"Feature","geometry":{"type":"Point","coordinates":[2.87409,50.64985]},"properties":{"type":"place","label":"bois Grenier, Bois Grenier","datetime":"1915-07-01T00:00:00Z","marker-color":"#00607d","marker-symbol":"circle","marker-size":"medium"}},{"type":"Feature","geometry":{"type":"Point","coordinates":[2.87409,50.64985]},"properties":{"type":"place","label":"Bois Grenier","datetime":"1915-07-01T00:00:00Z","marker-color":"#00607d","marker-symbol":"circle","marker-size":"medium"}},{"type":"Feature","geometry":{"type":"Point","coordinates":[2.72659,50.85386]},"properties":{"type":"place","label":"Poperinghe","datetime":"1915-07-01T00:00:00Z","marker-color":"#00607d","marker-symbol":"circle","marker-size":"medium"}},{"type":"Feature","geometry":{"type":"Point","coordinates":[2.88569,50.85114]},"properties":{"type":"place","label":"Ypres","datetime":"1915-07-01T00:00:00Z","marker-color":"#00607d","marker-symbol":"circle","marker-size":"medium"}},{"type":"Feature","geometry":{"type":"Point","coordinates":[2.82024,50.85485]},"properties":{"type":"place","label":"Vlamertinghe","datetime":"1915-07-01T00:00:00Z","marker-color":"#00607d","marker-symbol":"circle","marker-size":"medium"}},{"type":"Feature","geometry":{"type":"Point","coordinates":[2.88569,50.85114]},"properties":{"type":"place","label":"Ypres, YPRES","datetime":"1915-07-01T00:00:00Z","marker-color":"#00607d","marker-symbol":"circle","marker-size":"medium"}},{"type":"Feature","geometry":{"type":"Point","coordinates":[2.88569,50.85114]},"properties":{"type":"place","label":"YPRES","datetime":"1915-07-01T00:00:00Z","marker-color":"#00607d","marker-symbol":"circle","marker-size":"medium"}},{"type":"Feature","geometry":{"type":"Point","coordinates":[2.7,50.8]},"properties":{"type":"place","label":"Boeschepe","datetime":"1915-07-01T00:00:00Z","marker-color":"#00607d","marker-symbol":"circle","marker-size":"medium"}},{"type":"Feature","geometry":{"type":"Point","coordinates":[2.7,50.8]},"properties":{"type":"place","label":"Boeschepe","datetime":"1915-07-01T00:00:00Z","marker-color":"#00607d","marker-symbol":"circle","marker-size":"medium"}},{"type":"Feature","geometry":{"type":"Point","coordinates":[0.10767,49.4938]},"properties":{"type":"place","label":"Havre","datetime":"1915-07-01T00:00:00Z","marker-color":"#00607d","marker-symbol":"circle","marker-size":"medium"}},{"type":"Feature","geometry":{"type":"Point","coordinates":[2.88569,50.85114]},"properties":{"type":"place","label":"Ypres","datetime":"1915-07-01T00:00:00Z","marker-color":"#00607d","marker-symbol":"circle","marker-size":"medium"}},{"type":"Feature","geometry":{"type":"Point","coordinates":[2.76652,49.95081]},"properties":{"type":"place","label":"Hill 60","datetime":"1915-07-01T00:00:00Z","marker-color":"#00607d","marker-symbol":"circle","marker-size":"medium"}},{"type":"Feature","geometry":{"type":"Point","coordinates":[2.76652,49.95081]},"properties":{"type":"place","label":"Raeninghelst, Rheninghelst","datetime":"1915-07-01T00:00:00Z","marker-color":"#00607d","marker-symbol":"circle","marker-size":"medium"}},{"type":"Feature","geometry":{"type":"Point","coordinates":[2.91288,50.86011]},"properties":{"type":"place","label":"Potijze","datetime":"1915-07-01T00:00:00Z","marker-color":"#00607d","marker-symbol":"circle","marker-size":"medium"}},{"type":"Feature","geometry":{"type":"Point","coordinates":[2.91288,50.86011]},"properties":{"type":"place","label":"Valorenhoer, Verlorenhoek, Vazor en hoek, valorenhoek, Valerenhoek","datetime":"1915-07-01T00:00:00Z","marker-color":"#00607d","marker-symbol":"circle","marker-size":"medium"}},{"type":"Feature","geometry":{"type":"Point","coordinates":[2.88214,50.68568]},"properties":{"type":"place","label":"Bailleul","datetime":"1915-07-01T00:00:00Z","marker-color":"#00607d","marker-symbol":"circle","marker-size":"medium"}},{"type":"Feature","geometry":{"type":"Point","coordinates":[2.91288,50.86011]},"properties":{"type":"place","label":"Potijze","datetime":"1915-07-01T18:00:00Z","marker-color":"#00607d","marker-symbol":"circle","marker-size":"medium"}},{"type":"Feature","geometry":{"type":"Point","coordinates":[2.91288,50.86011]},"properties":{"type":"place","label":"Wieltje, WIELTSE","datetime":"1915-07-01T18:00:00Z","marker-color":"#00607d","marker-symbol":"circle","marker-size":"medium"}},{"type":"Feature","geometry":{"type":"Point","coordinates":[2.72659,50.85386]},"properties":{"type":"place","label":"Ypres","datetime":"1915-07-01T00:00:00Z","marker-color":"#00607d","marker-symbol":"circle","marker-size":"medium"}},{"type":"Feature","geometry":{"type":"Point","coordinates":[2.72659,50.85386]},"properties":{"type":"place","label":"Poperinge, Poperinghe, Poperingne","datetime":"1915-07-01T00:00:00Z","marker-color":"#00607d","marker-symbol":"circle","marker-size":"medium"}},{"type":"Feature","geometry":{"type":"Point","coordinates":[2.72659,50.85386]},"properties":{"type":"place","label":"Poperinghe, poperinge","datetime":"1915-07-01T00:00:00Z","marker-color":"#00607d","marker-symbol":"circle","marker-size":"medium"}},{"type":"Feature","geometry":{"type":"Point","coordinates":[2.72659,50.85386]},"properties":{"type":"place","label":"poperinghe, Poperinghe","datetime":"1915-07-01T00:00:00Z","marker-color":"#00607d","marker-symbol":"circle","marker-size":"medium"}},{"type":"Feature","geometry":{"type":"Point","coordinates":[2.57277,50.56062]},"properties":{"type":"place","label":"Cantrainne","datetime":"1915-07-01T00:00:00Z","marker-color":"#00607d","marker-symbol":"circle","marker-size":"medium"}},{"type":"Feature","geometry":{"type":"Point","coordinates":[2.51827,50.58781]},"properties":{"type":"place","label":"Busnes","datetime":"1915-07-01T00:00:00Z","marker-color":"#00607d","marker-symbol":"circle","marker-size":"medium"}},{"type":"Feature","geometry":{"type":"Point","coordinates":[2.51827,50.58781]},"properties":{"type":"place","label":"Busnes","datetime":"1915-07-01T06:00:00Z","marker-color":"#00607d","marker-symbol":"circle","marker-size":"medium"}},{"type":"Feature","geometry":{"type":"Point","coordinates":[2.45825,50.58893]},"properties":{"type":"place","label":"Ham-en-artois, HAM EN ARTOIS, Ham-en-Artois, Ham-En-Artois","datetime":"1915-07-01T00:00:00Z","marker-color":"#00607d","marker-symbol":"circle","marker-size":"medium"}},{"type":"Feature","geometry":{"type":"Point","coordinates":[2.70091,50.53759]},"properties":{"type":"place","label":"Gorre","datetime":"1915-07-01T22:00:00Z","marker-color":"#00607d","marker-symbol":"circle","marker-size":"medium"}},{"type":"Feature","geometry":{"type":"Point","coordinates":[0.98369,45.74006]},"properties":{"type":"place","label":"Gorre","datetime":"1915-07-01T22:00:00Z","marker-color":"#00607d","marker-symbol":"circle","marker-size":"medium"}},{"type":"Feature","geometry":{"type":"Point","coordinates":[2.4,50.58333]},"properties":{"type":"place","label":"Norrent Fontes","datetime":"1915-07-01T20:00:00Z","marker-color":"#00607d","marker-symbol":"circle","marker-size":"medium"}},{"type":"Feature","geometry":{"type":"Point","coordinates":[2.40983,50.7322]},"properties":{"type":"place","label":"Ebblinghem","datetime":"1915-07-01T00:00:00Z","marker-color":"#00607d","marker-symbol":"circle","marker-size":"medium"}},{"type":"Feature","geometry":{"type":"Point","coordinates":[2.72659,50.85386]},"properties":{"type":"place","label":"Poperinge","datetime":"1915-07-01T00:00:00Z","marker-color":"#00607d","marker-symbol":"circle","marker-size":"medium"}},{"type":"Feature","geometry":{"type":"Point","coordinates":[2.45095,50.82478]},"properties":{"type":"place","label":"Zermezeele","datetime":"1915-07-01T00:00:00Z","marker-color":"#00607d","marker-symbol":"circle","marker-size":"medium"}},{"type":"Feature","geometry":{"type":"Point","coordinates":[2.48529,50.82041]},"properties":{"type":"place","label":"Hardifort","datetime":"1915-06-01T00:00:00Z","marker-color":"#00607d","marker-symbol":"circle","marker-size":"medium"}},{"type":"Feature","geometry":{"type":"Point","coordinates":[2.48527,50.80109]},"properties":{"type":"place","label":"Cassel","datetime":"1915-06-01T00:00:00Z","marker-color":"#00607d","marker-symbol":"circle","marker-size":"medium"}},{"type":"Feature","geometry":{"type":"Point","coordinates":[2.46901,50.88129]},"properties":{"type":"place","label":"Wormhoudt","datetime":"1915-06-01T00:00:00Z","marker-color":"#00607d","marker-symbol":"circle","marker-size":"medium"}},{"type":"Feature","geometry":{"type":"Point","coordinates":[2.46901,50.88129]},"properties":{"type":"place","label":"Wormhoudt","datetime":"1915-06-01T00:00:00Z","marker-color":"#00607d","marker-symbol":"circle","marker-size":"medium"}},{"type":"Feature","geometry":{"type":"Point","coordinates":[2.40983,50.7322]},"properties":{"type":"place","label":"Ebblinghem","datetime":"1915-06-01T00:00:00Z","marker-color":"#00607d","marker-symbol":"circle","marker-size":"medium"}},{"type":"Feature","geometry":{"type":"Point","coordinates":[1.09932,49.44313]},"properties":{"type":"place","label":"St Omer","datetime":"1915-06-01T14:00:00Z","marker-color":"#00607d","marker-symbol":"circle","marker-size":"medium"}},{"type":"Feature","geometry":{"type":"Point","coordinates":[1.09932,49.44313]},